[{"name": "国見岳", "name_en": "Mt. Kunimi", "ele": 1347.0, "lat": 32.7621746, "lon": 130.2871442}, {"name": "普賢岳", "name_en": "Mt. Fugen", "ele": 1359.3, "lat": 32.759954, "lon": 130.2922357}, {"name": "宮之浦岳", "name_en": "Mount Miyanoura", "ele": 1936.0, "lat": 30.3361156, "lon": 130.5042064}, {"name": "雁俣山", "name_en": null, "ele": 1315.0, "lat": 32.5836142, "lon": 130.9071033}, {"name": "高塚山", "name_en": null, "ele": 1508.0, "lat": 32.4192914, "lon": 130.9451681}, {"name": "多良岳", "name_en": "Mt. Taradake", "ele": 996.0, "lat": 32.9756133, "lon": 130.0927689}, {"name": "経ヶ岳", "name_en": "Mount Kyo", "ele": 1076.0, "lat": 32.9875215, "lon": 130.0762744}, {"name": "平岳", "name_en": null, "ele": 1102.0, "lat": 31.461864, "lon": 130.794608}, {"name": "黒味岳", "name_en": "Mt. Kuromi", "ele": 1831.0, "lat": 30.3174208, "lon": 130.5085522}, {"name": "永田岳", "name_en": "Mt. Nagata", "ele": 1886.0, "lat": 30.3429237, "lon": 130.4924104}, {"name": "ツームシ山", "name_en": null, "ele": 1064.0, "lat": 32.9637084, "lon": 130.9428506}, {"name": "俵山", "name_en": "Mount Tawara", "ele": 1095.0, "lat": 32.8378569, "lon": 130.9704952}, {"name": "冠ヶ岳", "name_en": null, "ele": 1154.3, "lat": 32.8080494, "lon": 130.9762572}, {"name": "孫岳", "name_en": null, "ele": null, "lat": 32.9678801, "lon": 130.9440968}, {"name": "鞍岳", "name_en": null, "ele": 1118.0, "lat": 32.9533817, "lon": 130.9339005}, {"name": "南山犬切", "name_en": null, "ele": 1562.0, "lat": 32.4503385, "lon": 130.9590351}, {"name": "仰烏帽子山", "name_en": "Nokeeboshi Yama", "ele": 1302.0, "lat": 32.3714574, "lon": 130.7777124}, {"name": "丸山", "name_en": null, "ele": null, "lat": 32.968356, "lon": 130.5381192}, {"name": "筒ヶ岳", "name_en": null, "ele": 501.0, "lat": 32.9845742, "lon": 130.5273004}, {"name": "観音岳", "name_en": null, "ele": null, "lat": 32.9769487, "lon": 130.5308564}, {"name": "大金峰", "name_en": null, "ele": 1396.0, "lat": 32.5520105, "lon": 130.9101713}, {"name": "小金峰", "name_en": null, "ele": 1377.0, "lat": 32.52793, "lon": 130.9246781}, {"name": "大箆柄岳", "name_en": "Mt. Ōnogara", "ele": 1236.2, "lat": 31.4862193, "lon": 130.8185364}, {"name": "小箆柄岳", "name_en": "Mt. Konogara", "ele": 1149.0, "lat": 31.4774764, "lon": 130.8199895}, {"name": "御岳", "name_en": null, "ele": 1181.7, "lat": 31.4604017, "lon": 130.8205503}, {"name": "枯木岳", "name_en": null, "ele": 959.0, "lat": 31.1296178, "lon": 130.8802188}, {"name": "稲尾岳", "name_en": "Mt. Inao", "ele": 930.0, "lat": 31.1234594, "lon": 130.8846697}, {"name": "太忠岳", "name_en": null, "ele": 1497.0, "lat": 30.3196587, "lon": 130.5633992}, {"name": "栗生岳", "name_en": "Mt. Kurio", "ele": 1867.0, "lat": 30.3335451, "lon": 130.5070023}, {"name": "甫与志岳", "name_en": "Mt. Hoyoshi Dake", "ele": 967.0, "lat": 31.2641412, "lon": 130.9901095}, {"name": "七遍巡り", "name_en": null, "ele": 1590.0, "lat": 32.4523765, "lon": 130.9653229}, {"name": "岩茸山", "name_en": null, "ele": 1438.0, "lat": 32.4397717, "lon": 130.9100746}, {"name": "石楠山", "name_en": "Shakunannyama", "ele": 1442.0, "lat": 32.4396787, "lon": 130.9419011}, {"name": "積岩山", "name_en": null, "ele": 1414.0, "lat": 32.4416788, "lon": 130.9045744}, {"name": "蕨野山", "name_en": null, "ele": 1438.0, "lat": 32.4405966, "lon": 130.9170216}, {"name": "鷹巣山", "name_en": null, "ele": 1454.0, "lat": 32.4417132, "lon": 130.9286609}, {"name": "京丈山", "name_en": null, "ele": 1473.0, "lat": 32.5796423, "lon": 130.9505812}, {"name": "妙見岳", "name_en": null, "ele": null, "lat": 32.7567929, "lon": 130.2855773}, {"name": "立岩の峰", "name_en": null, "ele": null, "lat": 32.7625807, "lon": 130.2949683}, {"name": "前岳", "name_en": "Mt. Maedake", "ele": 983.0, "lat": 32.9762443, "lon": 130.0979621}, {"name": "舞岳", "name_en": null, "ele": 867.0, "lat": 32.9817775, "lon": 130.076498}, {"name": "上福根山", "name_en": null, "ele": 1645.6, "lat": 32.4727973, "lon": 130.9478923}, {"name": "茶臼山", "name_en": null, "ele": 1445.7, "lat": 32.4779796, "lon": 130.9284252}, {"name": "花岡山", "name_en": null, "ele": 132.2, "lat": 32.7965866, "lon": 130.6863371}, {"name": "韓国岳", "name_en": "Mt. Karakuni", "ele": 1700.0, "lat": 31.9342053, "lon": 130.8615634}, {"name": "新燃岳", "name_en": "Mt. Shinmoe", "ele": 1421.0, "lat": 31.9096462, "lon": 130.8864335}, {"name": "高千穂峰", "name_en": "Mt. Takachihonomine", "ele": 1574.0, "lat": 31.8862961, "lon": 130.9189302}, {"name": "一ノ峯", "name_en": null, "ele": null, "lat": 32.8172704, "lon": 130.9526495}, {"name": "二ノ峯", "name_en": null, "ele": null, "lat": 32.8184485, "lon": 130.9579257}, {"name": "栗野岳", "name_en": null, "ele": 1094.0, "lat": 31.9509369, "lon": 130.79516}, {"name": "保口岳", "name_en": null, "ele": 1281.4, "lat": 32.5096063, "lon": 130.8800997}, {"name": "普賢峰", "name_en": null, "ele": null, "lat": 32.5055859, "lon": 130.8816495}, {"name": "紫尾山", "name_en": "Shibi Zan", "ele": 1067.0, "lat": 31.9808161, "lon": 130.3676407}, {"name": "九千部岳", "name_en": null, "ele": 1062.3, "lat": 32.775459, "lon": 130.2606457}, {"name": "吾妻岳", "name_en": null, "ele": null, "lat": 32.7911271, "lon": 130.2527931}, {"name": "えびの岳", "name_en": null, "ele": 1292.7, "lat": 31.942096, "lon": 130.8326002}, {"name": "矢岳", "name_en": "Mt. Yadake", "ele": 1132.0, "lat": 31.9099826, "lon": 130.918423}, {"name": "龍王岳", "name_en": null, "ele": 1175.0, "lat": 31.9110777, "lon": 130.9091167}, {"name": "Shirahatayama - 白旗山", "name_en": null, "ele": 137.8, "lat": 32.702361, "lon": 130.7878351}, {"name": "城山", "name_en": "Mt. Shiroyama", "ele": 108.0, "lat": 31.5967883, "lon": 130.5503369}, {"name": "井樋ノ尾岳", "name_en": null, "ele": 406.6, "lat": 32.806783, "lon": 129.990983}, {"name": "424M", "name_en": null, "ele": 424.2, "lat": 32.8200971, "lon": 129.9311264}, {"name": "419M", "name_en": null, "ele": 419.0, "lat": 32.820871, "lon": 129.9241701}, {"name": "甑岳", "name_en": null, "ele": 1301.4, "lat": 31.965325, "lon": 130.859262}, {"name": "イマキラ岳", "name_en": "Mt. Imakira", "ele": 291.9, "lat": 29.1444225, "lon": 129.2080538}, {"name": "モッチョム岳", "name_en": "Mt. Mocchomu", "ele": 940.0, "lat": 30.2566634, "lon": 130.5641702}, {"name": "五家原岳", "name_en": "Mt. Gokahara-dake", "ele": 1057.3, "lat": 32.9580485, "lon": 130.0765559}, {"name": "倉岳", "name_en": "Kura Take", "ele": 682.2, "lat": 32.4278032, "lon": 130.3269941}, {"name": "八郎岳", "name_en": "Hachiro Dake", "ele": 589.8, "lat": 32.6702238, "lon": 129.8565278}, {"name": "八重山", "name_en": "Yae Yama", "ele": 676.8, "lat": 31.7344652, "lon": 130.4483246}, {"name": "冠岳", "name_en": null, "ele": 516.0, "lat": 31.748662, "lon": 130.3311864}, {"name": "前岳", "name_en": "Mt. Mae", "ele": 628.5, "lat": 29.9680428, "lon": 129.9255439}, {"name": "国見山", "name_en": "Kunimi Yama", "ele": 969.3, "lat": 32.1877573, "lon": 130.6141573}, {"name": "尾岳", "name_en": "O Take", "ele": 603.7, "lat": 31.7231633, "lon": 129.7393378}, {"name": "山王山", "name_en": "Mt. Sanno", "ele": 438.7, "lat": 32.933472, "lon": 129.0529138}, {"name": "平成新山", "name_en": null, "ele": 1483.0, "lat": 32.7613516, "lon": 130.298897}, {"name": "御岳", "name_en": "Mt. Mitake", "ele": 584.0, "lat": 29.4650021, "lon": 129.5947463}, {"name": "御岳", "name_en": "Mt. Otake", "ele": 796.0, "lat": 29.6383284, "lon": 129.713886}, {"name": "御岳", "name_en": "Otake", "ele": 979.0, "lat": 29.8592961, "lon": 129.8569501}, {"name": "御岳", "name_en": "Mt. Otake", "ele": 497.2, "lat": 29.9031393, "lon": 129.5416324}, {"name": "御岳", "name_en": "Mt. On", "ele": 1117.0, "lat": 31.5925964, "lon": 130.6565657}, {"name": "櫓岳", "name_en": "Mt. Yagura", "ele": 620.4, "lat": 30.8283289, "lon": 129.937491}, {"name": "湯湾岳", "name_en": "Mt. Yuwan", "ele": 694.4, "lat": 28.296043, "lon": 129.3211428}, {"name": "熊ヶ岳", "name_en": null, "ele": 589.7, "lat": 31.4552894, "lon": 130.4638854}, {"name": "父ヶ岳", "name_en": "Mt. Tetegadake", "ele": 460.4, "lat": 32.6982191, "lon": 128.6810268}, {"name": "白髪岳", "name_en": "Shiraga Dake", "ele": 1416.7, "lat": 32.1502794, "lon": 130.9433398}, {"name": "矢筈岳", "name_en": "Yahazu Dake", "ele": 687.0, "lat": 32.1229134, "lon": 130.4006413}, {"name": "硫黄岳", "name_en": "Mt. Io", "ele": 703.7, "lat": 30.7930063, "lon": 130.3052589}, {"name": "角山", "name_en": "Kado Yama", "ele": 526.0, "lat": 32.3993321, "lon": 130.0938917}, {"name": "野間岳", "name_en": "Mt.Noma", "ele": 591.1, "lat": 31.4045602, "lon": 130.1582091}, {"name": "金峯山", "name_en": "Mt.Kimpo", "ele": 636.3, "lat": 31.4677791, "lon": 130.383044}, {"name": "金峰山", "name_en": "Kinpo Zan", "ele": 665.2, "lat": 32.8138785, "lon": 130.6388716}, {"name": "長浦岳", "name_en": null, "ele": 560.8, "lat": 32.9135033, "lon": 129.7448093}, {"name": "長塚山", "name_en": "Mount Nagatsuka", "ele": 195.0, "lat": 32.6580239, "lon": 130.791983}, {"name": "金毘羅山", "name_en": "Mount Konpira", "ele": 236.2, "lat": 32.6281411, "lon": 130.8053909}, {"name": "東光山", "name_en": null, "ele": 160.1, "lat": 32.0984958, "lon": 130.3618009}, {"name": "甲佐岳", "name_en": "Mount Kosa", "ele": 753.0, "lat": 32.664098, "lon": 130.876207}, {"name": "鍋山", "name_en": null, "ele": 359.0, "lat": 31.5754233, "lon": 130.6858086}, {"name": "引ノ平", "name_en": "Hikinodaira", "ele": 563.2, "lat": 31.5819811, "lon": 130.639625}, {"name": "春田山", "name_en": "Harutayama", "ele": 408.0, "lat": 31.5936495, "lon": 130.6340007}, {"name": "中岳", "name_en": null, "ele": 1060.0, "lat": 31.5845592, "lon": 130.6573698}, {"name": "飯田山", "name_en": null, "ele": 431.2, "lat": 32.7400572, "lon": 130.8276427}, {"name": "笠山", "name_en": null, "ele": 395.0, "lat": 32.1097443, "lon": 130.2260768}, {"name": "番屋ヶ峰", "name_en": "Mt. Banyagamine", "ele": 290.9, "lat": 30.4705107, "lon": 130.177302}, {"name": "大尾岳", "name_en": "Mt. Uodake", "ele": 940.6, "lat": 31.226796, "lon": 130.9252863}, {"name": "城山", "name_en": null, "ele": 103.3, "lat": 31.3408993, "lon": 130.9486597}, {"name": "黒尊岳", "name_en": "Mt. Kuroson", "ele": 908.6, "lat": 31.2954955, "lon": 130.9938958}, {"name": "六郎館岳", "name_en": null, "ele": 754.1, "lat": 31.1848422, "lon": 130.9444862}, {"name": "小山山", "name_en": null, "ele": 190.0, "lat": 32.8367801, "lon": 130.7930558}, {"name": "神園山", "name_en": null, "ele": 183.0, "lat": 32.8399303, "lon": 130.7883624}, {"name": "愛宕山", "name_en": null, "ele": 166.7, "lat": 31.580761, "lon": 130.6173017}, {"name": "権現山", "name_en": null, "ele": 350.0, "lat": 31.5830365, "lon": 130.6828837}, {"name": "鷹首山", "name_en": null, "ele": 268.0, "lat": 32.0133175, "lon": 130.2533542}, {"name": "上床山", "name_en": null, "ele": null, "lat": 31.989356, "lon": 130.2271907}, {"name": "愛宕山", "name_en": null, "ele": 196.0, "lat": 32.0040004, "lon": 130.2214407}, {"name": "城山", "name_en": null, "ele": 71.5, "lat": 31.592245, "lon": 130.6020629}, {"name": "湯之平", "name_en": "Yunohira", "ele": 373.8, "lat": 31.5915561, "lon": 130.630241}, {"name": "大行寺山", "name_en": null, "ele": 957.0, "lat": 32.5652422, "lon": 130.8376357}, {"name": "白山", "name_en": null, "ele": 1073.0, "lat": 32.572664, "lon": 130.852253}, {"name": "北山犬切", "name_en": null, "ele": null, "lat": 32.4665633, "lon": 130.9646985}, {"name": "矢護山", "name_en": null, "ele": 942.0, "lat": 32.9409098, "lon": 130.9483527}, {"name": "丸山", "name_en": null, "ele": 217.8, "lat": 31.8026715, "lon": 130.4081493}, {"name": "龍ヶ岳", "name_en": "Ryuga-take", "ele": 469.3, "lat": 32.4022797, "lon": 130.3784886}, {"name": "千巌山", "name_en": null, "ele": 162.1, "lat": 32.5106662, "lon": 130.4196751}, {"name": "高舞登山", "name_en": null, "ele": 115.8, "lat": 32.522572, "lon": 130.4416406}, {"name": "Kitamukiyama - 北向山", "name_en": null, "ele": 796.5, "lat": 32.8627814, "lon": 130.9783977}, {"name": "高畑山", "name_en": null, "ele": 795.8, "lat": 32.797493, "lon": 130.9376013}, {"name": "大峯", "name_en": null, "ele": 409.1, "lat": 32.8357207, "lon": 130.9248513}, {"name": "長山", "name_en": null, "ele": 658.0, "lat": 32.7885822, "lon": 130.9252739}, {"name": "二ツ山", "name_en": null, "ele": 690.6, "lat": 32.7784348, "lon": 130.9284872}, {"name": "権現山", "name_en": null, "ele": 515.0, "lat": 32.792695, "lon": 130.9065467}, {"name": "追分山", "name_en": null, "ele": 706.0, "lat": 32.7630185, "lon": 130.9635416}, {"name": "馬蹄山", "name_en": null, "ele": 774.0, "lat": 32.7646515, "lon": 130.9764483}, {"name": "電信山", "name_en": null, "ele": 576.0, "lat": 32.7445485, "lon": 130.9476307}, {"name": "城山", "name_en": null, "ele": 480.5, "lat": 32.787943, "lon": 130.8836332}, {"name": "Kamikuriyama - 上栗山", "name_en": null, "ele": 130.9, "lat": 32.7339271, "lon": 130.8059248}, {"name": "健山", "name_en": null, "ele": 300.0, "lat": 32.7662662, "lon": 129.8979222}, {"name": "大矢岳", "name_en": "Mount Oya", "ele": 1220.2, "lat": 32.793872, "lon": 130.9992256}, {"name": "オケラ山", "name_en": null, "ele": 954.7, "lat": 32.9782691, "lon": 130.9914613}, {"name": "郡岳", "name_en": "Mt. Kori-dake", "ele": null, "lat": 32.9923304, "lon": 130.0070147}, {"name": "白鳥山", "name_en": "Mount Shiratori", "ele": 1363.0, "lat": 31.9565943, "lon": 130.8381088}, {"name": "南日岳", "name_en": "Mt. Nannichi", "ele": 95.0, "lat": 31.2027506, "lon": 129.4752773}, {"name": "清内岳", "name_en": "Mt. Seinai", "ele": 319.0, "lat": 31.1954716, "lon": 129.4477855}, {"name": "笠沙岳", "name_en": "Mt. Kasasa", "ele": 218.0, "lat": 31.1833755, "lon": 129.4414676}, {"name": "ガムコ山", "name_en": "Mt. Gamuko", "ele": 569.0, "lat": 30.8272681, "lon": 129.92746}, {"name": "冠山", "name_en": "Mt. Kanmuri", "ele": 233.2, "lat": 30.8338749, "lon": 129.9630511}, {"name": "帽子山", "name_en": "Mt. Boshi", "ele": null, "lat": 30.8292642, "lon": 129.9410137}, {"name": "手向山", "name_en": null, "ele": 523.0, "lat": 30.8334499, "lon": 129.9379651}, {"name": "横岳山", "name_en": "Mt. Yokodake", "ele": 590.0, "lat": 30.829354, "lon": 129.9322219}, {"name": "花立山", "name_en": "Mt. Hanatate", "ele": 500.0, "lat": 30.8383225, "lon": 129.9295192}, {"name": "矢筈山", "name_en": "Mt. Yahazu", "ele": 349.0, "lat": 30.7942771, "lon": 130.2843478}, {"name": "稲村岳", "name_en": "Mt. Inamura", "ele": null, "lat": 30.7828577, "lon": 130.2884591}, {"name": "アビ山", "name_en": "Mt. Abiyama", "ele": 203.0, "lat": 30.8078796, "lon": 130.4253657}, {"name": "マゴメ山", "name_en": "Mt. Magome", "ele": 219.9, "lat": 30.8125137, "lon": 130.432611}, {"name": "高平山", "name_en": "Mt. Takahira", "ele": 158.0, "lat": 30.8082896, "lon": 130.4444676}, {"name": "淀山", "name_en": "Mt. Yodoyama", "ele": 175.9, "lat": 28.4470733, "lon": 129.6947156}, {"name": "竹の山", "name_en": null, "ele": 102.7, "lat": 29.2239384, "lon": 129.3273176}, {"name": "富立岳", "name_en": "Mt. Tondachi", "ele": 536.0, "lat": 29.6644187, "lon": 129.7369275}, {"name": "根上岳", "name_en": "Mt. Negami", "ele": 470.0, "lat": 29.629266, "lon": 129.7008664}, {"name": "ビロウ山", "name_en": "Mt. Biro", "ele": 336.0, "lat": 29.4514543, "lon": 129.6104628}, {"name": "中岳", "name_en": "Mt. Nakadake", "ele": 464.0, "lat": 29.4614642, "lon": 129.6060452}, {"name": "御岳", "name_en": "Mt. Otake", "ele": 242.9, "lat": 29.6918014, "lon": 129.533916}, {"name": "女神山", "name_en": "Mt. Megami", "ele": 130.0, "lat": 29.154202, "lon": 129.1965966}, {"name": "タナギ山", "name_en": "Mt. Tanagi", "ele": 453.5, "lat": 29.9555722, "lon": 129.9364019}, {"name": "燃岳", "name_en": "Mt. Moe", "ele": 425.0, "lat": 29.9612703, "lon": 129.9330652}, {"name": "横岳", "name_en": "Mt. Yoko", "ele": 501.0, "lat": 29.9670621, "lon": 129.9165924}, {"name": "烏帽子岳", "name_en": "Mt. Eboshi", "ele": 233.9, "lat": 29.976405, "lon": 129.9031371}, {"name": "ホトケビラ岳", "name_en": "Mt. Hotokebira", "ele": null, "lat": 29.9809123, "lon": 129.9101645}, {"name": "向岳", "name_en": "Mt. Mukai", "ele": 159.0, "lat": 29.9918452, "lon": 129.9186403}, {"name": "フリイ岳", "name_en": "Mt. Furii", "ele": 235.0, "lat": 30.0022543, "lon": 129.9142013}, {"name": "ジンニョム岳", "name_en": "Mt. Jinnyomu", "ele": 437.0, "lat": 29.8291972, "lon": 129.9022069}, {"name": "先割岳", "name_en": "Mt. Sakiwari", "ele": 524.0, "lat": 29.8294019, "lon": 129.8875513}, {"name": "キン岳", "name_en": "Mt. Kin", "ele": 458.0, "lat": 29.8310772, "lon": 129.8704066}, {"name": "ネガミ岳", "name_en": "Mt. Negami", "ele": 395.2, "lat": 29.8486477, "lon": 129.8867788}, {"name": "八原岳", "name_en": null, "ele": 1149.9, "lat": 32.3971849, "lon": 130.854902}, {"name": "稲佐山", "name_en": null, "ele": 332.9, "lat": 32.753426, "lon": 129.8493382}, {"name": "高盤岳", "name_en": "Mt. Koban", "ele": 1711.0, "lat": 30.3080782, "lon": 130.5109676}, {"name": "男岳", "name_en": "Mt. Odake", "ele": 150.0, "lat": 32.7348364, "lon": 128.6003055}, {"name": "女岳", "name_en": "Mt. Medake", "ele": 129.3, "lat": 32.7177416, "lon": 128.591878}, {"name": "番岳", "name_en": "Mt. Bandake", "ele": 264.4, "lat": 32.7536499, "lon": 128.98382}, {"name": "致彦山", "name_en": "Mt. Itahiko", "ele": 325.9, "lat": 32.7728307, "lon": 129.0003209}, {"name": "細ケ岳", "name_en": null, "ele": 25.0, "lat": 32.5669627, "lon": 128.8918705}, {"name": "番岳", "name_en": null, "ele": 91.5, "lat": 32.5663478, "lon": 128.9043213}, {"name": "磯間嶽", "name_en": "Mt.Isoma", "ele": 363.0, "lat": 31.3417789, "lon": 130.2449205}, {"name": "中嶽", "name_en": null, "ele": null, "lat": 31.33632, "lon": 130.2412891}, {"name": "高島山", "name_en": null, "ele": null, "lat": 32.5216045, "lon": 130.5771118}, {"name": "天竺", "name_en": "Tenjiku", "ele": 538.26, "lat": 32.4362678, "lon": 130.0837763}, {"name": "Some-dake", "name_en": null, "ele": 380.3, "lat": 32.4475726, "lon": 130.1599527}, {"name": "中岳", "name_en": "Mt. Nakadake", "ele": 1332.0, "lat": 31.8996086, "lon": 130.8898755}, {"name": "獅子戸岳", "name_en": "Mt. Shishiko", "ele": 1429.0, "lat": 31.9214198, "lon": 130.8814573}, {"name": "亀ヶ丘", "name_en": "Mt. Kamegaoka", "ele": null, "lat": 31.3587779, "lon": 130.2103476}, {"name": "長屋山", "name_en": "Mt.Choya", "ele": 513.1, "lat": 31.3802394, "lon": 130.2674727}, {"name": "蔵多山", "name_en": "Mt.Kurata", "ele": 475.4, "lat": 31.3398018, "lon": 130.3020953}, {"name": "喜界島最高地", "name_en": null, "ele": null, "lat": 28.3000843, "lon": 129.9737333}, {"name": "矢筈岳", "name_en": "Mt.Yahazu", "ele": 302.0, "lat": 31.6106437, "lon": 130.3757151}, {"name": "浦上", "name_en": null, "ele": 301.0, "lat": 28.3881536, "lon": 129.550676}, {"name": "中勝", "name_en": null, "ele": 248.0, "lat": 28.3831544, "lon": 129.5353815}, {"name": "向里", "name_en": null, "ele": 103.0, "lat": 28.3856399, "lon": 129.5241159}, {"name": "諸正岳", "name_en": null, "ele": 301.0, "lat": 31.5991176, "lon": 130.3822843}, {"name": "宗前岳", "name_en": "Mt. Sozen", "ele": null, "lat": 31.2731347, "lon": 130.2539399}, {"name": "陣ノ尾", "name_en": "Mt. Jinnoo", "ele": 462.9, "lat": 31.3290815, "lon": 130.2241186}, {"name": "魚見岳", "name_en": "Mt.Uomi", "ele": null, "lat": 31.2620591, "lon": 130.654322}, {"name": "矢筈岳", "name_en": "Yahazu-dake", "ele": 480.6, "lat": 32.3843055, "lon": 130.092447}, {"name": "行人岳", "name_en": "Gyonin-dake", "ele": 483.0, "lat": 32.3586174, "lon": 130.1154733}, {"name": "頭岳", "name_en": "Kashira-dake", "ele": 465.7, "lat": 32.3494858, "lon": 130.1064656}, {"name": "蕗嶽", "name_en": "Tsuwa-dake", "ele": 320.1, "lat": 32.4747584, "lon": 130.4275077}, {"name": "白嶽", "name_en": "Shira-take", "ele": 372.8, "lat": 32.4659369, "lon": 130.4206175}, {"name": "鹿見岳", "name_en": "Shikami-dake", "ele": 284.8, "lat": 32.4501053, "lon": 130.4065645}, {"name": "烏帽子岳", "name_en": "Eboshi-dake", "ele": 468.0, "lat": 32.4232775, "lon": 130.3776937}, {"name": "念珠岳", "name_en": "Nenju-dake", "ele": 502.8, "lat": 32.4319996, "lon": 130.3815304}, {"name": "間谷山", "name_en": "Mount Mantan", "ele": 812.0, "lat": 32.6925449, "lon": 130.9192255}, {"name": "柱岳", "name_en": "Hashira Dake", "ele": 517.6, "lat": 32.4598641, "lon": 130.0822095}, {"name": "苓州", "name_en": "Reishū", "ele": 521.0, "lat": 32.4524577, "lon": 130.0940391}, {"name": "矢筈岳", "name_en": "Yahazu Dake", "ele": 480.0, "lat": 32.4697096, "lon": 130.0880487}, {"name": "水ノ元", "name_en": "Mizunomoto", "ele": 489.0, "lat": 32.4820639, "lon": 130.0975818}, {"name": "雪州", "name_en": "Sesshū", "ele": 518.0, "lat": 32.4527134, "lon": 130.0997926}, {"name": "立田山", "name_en": null, "ele": null, "lat": 32.8269293, "lon": 130.7322568}, {"name": "宝積寺山", "name_en": null, "ele": null, "lat": 32.8340829, "lon": 130.7523358}, {"name": "岩倉山緑地", "name_en": null, "ele": null, "lat": 32.8435119, "lon": 130.7448578}, {"name": "乗越ヶ丘", "name_en": null, "ele": null, "lat": 32.8346103, "lon": 130.7337105}, {"name": "万日山", "name_en": null, "ele": 138.0, "lat": 32.7941833, "lon": 130.680474}, {"name": "老嶽", "name_en": "Oidake", "ele": 590.17, "lat": 32.4808205, "lon": 130.3400859}, {"name": "行人岳", "name_en": "Gyonin-dake", "ele": 505.9, "lat": 32.4200084, "lon": 130.1461006}, {"name": "金川岳", "name_en": "Mt. Kanengo", "ele": 528.0, "lat": 28.2144063, "lon": 129.431026}, {"name": "砥石山", "name_en": "Mt. Toishi", "ele": 233.0, "lat": 32.8218583, "lon": 129.0603925}, {"name": "霧氷沢", "name_en": null, "ele": null, "lat": 32.7609876, "lon": 130.2948126}, {"name": "虎星山", "name_en": "Mt. Toraboshi", "ele": 254.2, "lat": 32.8331004, "lon": 129.0588934}, {"name": "桜ヶ岳", "name_en": "Mount Sakura", "ele": 329.4, "lat": 32.9719563, "lon": 129.1291054}, {"name": "大高山", "name_en": "Mount Daiko", "ele": 223.0, "lat": 32.9677082, "lon": 129.1098475}, {"name": "城山", "name_en": "Mt. Shiroyama", "ele": 214.7, "lat": 32.9943714, "lon": 129.0858801}, {"name": "門松山", "name_en": "Mt. Kadomatsu", "ele": 124.0, "lat": 32.9996425, "lon": 129.0940982}, {"name": "矢倉岳", "name_en": "Mount Yagura", "ele": 383.9, "lat": 32.9629717, "lon": 129.0867572}, {"name": "飯盛山", "name_en": "Mount Iimori", "ele": 336.5, "lat": 32.956109, "lon": 129.1332927}, {"name": "藤嶽", "name_en": "Mount Fuji", "ele": 329.3, "lat": 32.9793473, "lon": 129.167941}, {"name": "旭岳", "name_en": "Mt. Asahigadake", "ele": 187.3, "lat": 32.9824115, "lon": 129.1305139}, {"name": "千間岳", "name_en": "Mt. Sengen", "ele": 249.6, "lat": 32.9625689, "lon": 129.009811}, {"name": "松尾山", "name_en": "Mt. Matsunoo", "ele": 291.2, "lat": 32.9442362, "lon": 129.0460414}, {"name": "雌嶽", "name_en": "Mt. Mendake", "ele": 401.1, "lat": 32.9205228, "lon": 129.0665818}, {"name": "天神山", "name_en": "Mt. Tenjin", "ele": 306.4, "lat": 32.9078612, "lon": 129.0159803}, {"name": "龍観山", "name_en": "Mt. Ryukan", "ele": 138.0, "lat": 32.8957978, "lon": 129.0291525}, {"name": "瀬戸見山", "name_en": "Mt. Setomi", "ele": 219.0, "lat": 32.945196, "lon": 129.0238947}, {"name": "蔵ノ小島", "name_en": "Kuranokoshima Island", "ele": 61.7, "lat": 32.9173632, "lon": 129.0455898}, {"name": "米山", "name_en": "Mt. Komeyama", "ele": 234.2, "lat": 32.8448436, "lon": 129.0517911}, {"name": "鵯越", "name_en": "Mt. Hiyodorigoe", "ele": 275.6, "lat": 32.8676468, "lon": 128.9525956}, {"name": "白野山", "name_en": null, "ele": 208.5, "lat": 32.9886029, "lon": 129.0587473}, {"name": "扇山", "name_en": "Mt. Ogi", "ele": 329.2, "lat": 32.8593179, "lon": 129.0584407}, {"name": "築地ヶ嶽", "name_en": "Mt. Chikujigatake", "ele": 304.0, "lat": 32.866459, "lon": 129.0581303}, {"name": "白木山", "name_en": "Mount Shiraki", "ele": 272.0, "lat": 32.9598923, "lon": 129.0718467}, {"name": "バンヤノ峠", "name_en": "Mt. Banyanotoge", "ele": 243.7, "lat": 32.9251359, "lon": 128.9624274}, {"name": "三盛山", "name_en": "Mt. Mimori", "ele": 302.1, "lat": 32.8601344, "lon": 129.0912735}, {"name": "遠見番岳", "name_en": "Mt. Toomibandake", "ele": 307.6, "lat": 32.8714435, "lon": 129.0816103}, {"name": "火燧山", "name_en": "Mt. Hiuchi", "ele": 236.0, "lat": 32.8760325, "lon": 129.0889769}, {"name": "黒木山", "name_en": "Mount Kuroki", "ele": 335.0, "lat": 32.9618248, "lon": 129.128777}, {"name": "遠見番山", "name_en": "Mt. Tomeban", "ele": 192.8, "lat": 32.8386895, "lon": 128.9494296}, {"name": "城岳", "name_en": "Mt. Shirotake", "ele": 188.7, "lat": 32.8322252, "lon": 128.94059}, {"name": "飯盛山", "name_en": "Mt. Iimori", "ele": 140.0, "lat": 32.8203148, "lon": 128.9295}, {"name": "馬頭山", "name_en": "Mt. Batozan", "ele": 235.4, "lat": 32.9166191, "lon": 128.9400054}, {"name": "三つ岩", "name_en": "Mitsu-iwa", "ele": 401.0, "lat": 32.4145947, "lon": 130.3711961}, {"name": "英彦山", "name_en": null, "ele": 401.0, "lat": 32.7455785, "lon": 129.9020836}, {"name": "金比羅山", "name_en": null, "ele": 366.4, "lat": 32.7718226, "lon": 129.8837936}, {"name": "舞岳", "name_en": null, "ele": 252.0, "lat": 32.7864177, "lon": 129.8044002}, {"name": "岩屋山", "name_en": null, "ele": 475.2, "lat": 32.7933175, "lon": 129.8304069}, {"name": "高岳", "name_en": null, "ele": 137.9, "lat": 32.8271683, "lon": 130.0284934}, {"name": "八天岳", "name_en": null, "ele": 296.7, "lat": 32.7985483, "lon": 130.018537}, {"name": "飯盛山", "name_en": null, "ele": 294.0, "lat": 32.7853624, "lon": 130.0024009}, {"name": "松尾岳", "name_en": null, "ele": 395.0, "lat": 32.7893851, "lon": 129.9894833}, {"name": "船石岳", "name_en": null, "ele": 451.3, "lat": 32.7882487, "lon": 129.9824238}, {"name": "行仙岳", "name_en": null, "ele": 456.2, "lat": 32.7833239, "lon": 129.9699783}, {"name": "普賢岳", "name_en": null, "ele": 439.0, "lat": 32.781574, "lon": 129.9668669}, {"name": "大野岳", "name_en": null, "ele": 465.9, "lat": 31.2560633, "lon": 130.516827}, {"name": "矢筈岳", "name_en": null, "ele": 358.8, "lat": 31.2219802, "lon": 130.5174743}, {"name": "牧神岳", "name_en": null, "ele": null, "lat": 31.3055501, "lon": 130.5243288}, {"name": "兵児岳", "name_en": null, "ele": null, "lat": 31.3006509, "lon": 130.5102456}, {"name": "尾巡山", "name_en": null, "ele": 577.2, "lat": 31.3105887, "lon": 130.5264696}, {"name": "母ヶ岳", "name_en": null, "ele": null, "lat": 31.3907558, "lon": 130.4669843}, {"name": "種子尾山", "name_en": null, "ele": null, "lat": 31.32914, "lon": 130.5201866}, {"name": "唐牧岳", "name_en": null, "ele": null, "lat": 31.3227769, "lon": 130.5169123}, {"name": "飯高山", "name_en": null, "ele": 125.0, "lat": 32.8759998, "lon": 130.7834928}, {"name": "箕岳", "name_en": "Mt. Minodake", "ele": 144.0, "lat": 32.6449924, "lon": 128.8838764}, {"name": "臼岳", "name_en": "Mt. Usudake", "ele": 124.9, "lat": 32.6405308, "lon": 128.8763085}, {"name": "火ノ岳", "name_en": "Mt. Hinotake", "ele": 314.2, "lat": 32.6604012, "lon": 128.865146}, {"name": "鬼岳", "name_en": "Mt. Onidake", "ele": 315.0, "lat": 32.6565831, "lon": 128.8489253}, {"name": "風頭山", "name_en": null, "ele": 146.0, "lat": 32.7457713, "lon": 129.8859635}, {"name": "大瀬山", "name_en": "Mt. Ose", "ele": 249.3, "lat": 32.6168656, "lon": 128.6070395}, {"name": "星山", "name_en": "Mt. Hoshiyama", "ele": 275.3, "lat": 32.6092251, "lon": 128.6298735}, {"name": "船場", "name_en": "Mt. Funaba", "ele": 135.8, "lat": 32.5946596, "lon": 128.6565409}, {"name": "ベラヶ岳", "name_en": "Mt. Beragatake", "ele": 233.5, "lat": 32.6228286, "lon": 128.7382873}, {"name": "番所山", "name_en": "Mt. Bansho", "ele": 64.7, "lat": 32.5865255, "lon": 128.7632363}, {"name": "岩谷岳", "name_en": "Mt. Iwaya", "ele": 397.0, "lat": 32.6518413, "lon": 128.6934354}, {"name": "七ッ岳", "name_en": "Mt. Nanatsu", "ele": 431.1, "lat": 32.6826923, "lon": 128.7057219}, {"name": "桐ノ木山", "name_en": "Mt. Kirinoki", "ele": 321.9, "lat": 32.7147503, "lon": 128.6746893}, {"name": "犬山瀬", "name_en": "Mt. Inuyamaze", "ele": 359.8, "lat": 32.6333808, "lon": 128.7383468}, {"name": "高岳", "name_en": "Mt. Takadake", "ele": 378.7, "lat": 32.65246, "lon": 128.7669056}, {"name": "翁頭山", "name_en": "Mt. Oto", "ele": 428.8, "lat": 32.6707165, "lon": 128.7854797}, {"name": "行者山", "name_en": "Mt. Gyoja", "ele": 339.0, "lat": 32.6824269, "lon": 128.7469053}, {"name": "唐嶽", "name_en": "Mt. Karadake", "ele": 365.2, "lat": 32.7196851, "lon": 128.7874389}, {"name": "笹嶽", "name_en": "Mt. Sasadake", "ele": 389.1, "lat": 32.7214443, "lon": 128.809813}, {"name": "権現岳", "name_en": "Mt. Gongendake", "ele": 359.4, "lat": 32.7504534, "lon": 128.7870439}, {"name": "番屋岳", "name_en": "Mt. Banya", "ele": 340.4, "lat": 32.8103149, "lon": 128.8489069}, {"name": "鵜岳", "name_en": "Mt. Udake", "ele": null, "lat": 32.8187486, "lon": 128.8463991}, {"name": "白岳", "name_en": "Mt. Shirotake", "ele": 292.4, "lat": 32.7982738, "lon": 128.8938067}, {"name": "福見岳", "name_en": "Mt. Fukumi", "ele": null, "lat": 32.8138618, "lon": 128.8886439}, {"name": "早房山", "name_en": "Mt. Hayabusa", "ele": 252.8, "lat": 32.8644754, "lon": 128.902232}, {"name": "水晶岳", "name_en": "Mt. Suishodake", "ele": 183.0, "lat": 32.8431781, "lon": 128.9493349}, {"name": "彦山", "name_en": null, "ele": 385.6, "lat": 32.7441595, "lon": 129.9015015}, {"name": "円山", "name_en": "Mt. Tsubura", "ele": 164.2, "lat": 31.7892692, "lon": 129.7845197}, {"name": "尾屋山", "name_en": "Mt. Biya", "ele": 174.0, "lat": 31.7828854, "lon": 129.7885001}, {"name": "三本迫", "name_en": "Mt. Sanbonzako", "ele": 176.7, "lat": 31.775662, "lon": 129.7840154}, {"name": "浮墨山", "name_en": "Mt. Ukisumi", "ele": 272.1, "lat": 31.8121652, "lon": 129.8306429}, {"name": "帽子山", "name_en": "Mt. Boshi", "ele": 296.0, "lat": 31.8010143, "lon": 129.8300636}, {"name": "木の口山", "name_en": "Mt. Kinokuchi", "ele": 293.8, "lat": 31.7980964, "lon": 129.8258471}, {"name": "ヒラバイ山", "name_en": "Mt. Hirabai", "ele": 156.0, "lat": 31.7774862, "lon": 129.8257291}, {"name": "遠見山", "name_en": "Mt. Toomi", "ele": 249.7, "lat": 31.8603368, "lon": 129.9145746}, {"name": "唐八景", "name_en": null, "ele": 298.6, "lat": 32.7184377, "lon": 129.8886292}, {"name": "タンポ山", "name_en": null, "ele": 473.3, "lat": 32.9029584, "lon": 129.7135562}, {"name": "大岳", "name_en": "Mt. Oodake", "ele": 477.4, "lat": 32.653549, "lon": 130.5775148}, {"name": "雄岳", "name_en": "Mt. Odake", "ele": 347.7, "lat": 32.6583093, "lon": 130.5645597}, {"name": "笹山", "name_en": "Mt. Sasayama", "ele": 178.0, "lat": 32.673239, "lon": 130.5807388}, {"name": "高山", "name_en": "Mt. Takayama", "ele": 305.0, "lat": 32.6875793, "lon": 130.5816507}, {"name": "柴尾山", "name_en": "Mt. Shibao", "ele": 358.8, "lat": 32.6543078, "lon": 130.6220555}, {"name": "白山", "name_en": "Mt. Hakusan", "ele": 218.1, "lat": 32.6725436, "lon": 130.6355739}, {"name": "野添山", "name_en": "Mt. Nozoe", "ele": 167.3, "lat": 32.683263, "lon": 130.5988598}, {"name": "糖塚山", "name_en": "Mt. Nukatsuka", "ele": 155.0, "lat": 32.6907848, "lon": 130.6033981}, {"name": "天竺山", "name_en": null, "ele": 387.0, "lat": 32.7961524, "lon": 129.8956805}, {"name": "上床(寺山)", "name_en": "Mt. Uwatoko (Terayama)", "ele": 310.3, "lat": 31.830637, "lon": 130.346763}, {"name": "猫岳", "name_en": "Mt. Nekodake", "ele": 120.6, "lat": 31.8227861, "lon": 130.2655256}, {"name": "Hachiryuzan - 八竜山", "name_en": null, "ele": 498.0, "lat": 32.4538838, "lon": 130.6390795}, {"name": "三角岳", "name_en": "Mt. Misumi", "ele": 405.7, "lat": 32.6277286, "lon": 130.4666161}, {"name": "百貫山", "name_en": "Mt. Hyakkan", "ele": 693.0, "lat": 32.085938, "lon": 130.7840824}, {"name": "矢岳山", "name_en": "Mt. Yatake", "ele": 739.2, "lat": 32.0859016, "lon": 130.7565951}, {"name": "滝下山", "name_en": "Mt. Takishita", "ele": 785.0, "lat": 32.0862652, "lon": 130.7354808}, {"name": "開聞岳", "name_en": "Mt. Kaimon", "ele": 924.0, "lat": 31.1799612, "lon": 130.5284404}, {"name": "夷守岳", "name_en": "Mt. Hinamori", "ele": 1344.0, "lat": 31.9493982, "lon": 130.9093764}, {"name": "崎ノ山", "name_en": "Mt. Sakinoyama", "ele": 99.8, "lat": 31.4262207, "lon": 130.1887699}, {"name": "53.1", "name_en": null, "ele": null, "lat": 32.8719192, "lon": 129.926902}, {"name": "67.2", "name_en": null, "ele": null, "lat": 28.0025199, "lon": 129.2554164}, {"name": "加崎岳", "name_en": "Mt. Kazaki", "ele": 326.0, "lat": 28.0823931, "lon": 129.2206979}, {"name": "嘉入山", "name_en": "Mt. Kanyu", "ele": 299.0, "lat": 28.143742, "lon": 129.2345381}, {"name": "弓師岳", "name_en": "Mt. Yumishi", "ele": 314.2, "lat": 28.1664161, "lon": 129.2026091}, {"name": "高鉢山", "name_en": "Mt. Takahachi", "ele": 298.2, "lat": 28.187506, "lon": 129.1991329}, {"name": "水天宮山", "name_en": "Mt. Suitengu", "ele": 63.0, "lat": 28.3042059, "lon": 129.9393636}, {"name": "301", "name_en": null, "ele": null, "lat": 29.8812299, "lon": 129.6217847}, {"name": "ネマチ", "name_en": "Mount Nemachi", "ele": 1814.0, "lat": 30.3462781, "lon": 130.4959381}, {"name": "中島の頭", "name_en": "Mt. Nakashimanokashira", "ele": 1678.0, "lat": 30.3262862, "lon": 130.4912388}, {"name": "後岳", "name_en": "Mt. Ushiro", "ele": 423.4, "lat": 30.2674258, "lon": 130.4377985}, {"name": "カブトガ峰", "name_en": "Mt. Kabutogamine", "ele": 249.7, "lat": 30.2750702, "lon": 130.4307496}, {"name": "太鼓岳", "name_en": "Mt. Taiko", "ele": 875.0, "lat": 30.3042617, "lon": 130.4435384}, {"name": "小楊子ヶ峰", "name_en": "Mt. Koyojigamine", "ele": 295.3, "lat": 30.2899496, "lon": 130.4188943}, {"name": "竹の辻", "name_en": "Mt. Takenotsuji", "ele": 1319.0, "lat": 30.3509352, "lon": 130.4482269}, {"name": "国割岳", "name_en": "Mt. Kuniwari", "ele": 1322.8, "lat": 30.352648, "lon": 130.415386}, {"name": "カンカケ岳", "name_en": "Mt. Kankake", "ele": 772.3, "lat": 30.3735046, "lon": 130.3994965}, {"name": "矢筈岳", "name_en": "Mt. Yahazu", "ele": 134.4, "lat": 30.4643775, "lon": 130.4957449}, {"name": "鉈折岳", "name_en": "Mt. Nataore", "ele": 552.0, "lat": 30.4213016, "lon": 130.5497968}, {"name": "一湊岳", "name_en": "Mt. Isso", "ele": 779.0, "lat": 30.4236053, "lon": 130.5019247}, {"name": "志戸子岳", "name_en": "Mt. Shitogo", "ele": 907.9, "lat": 30.4147974, "lon": 130.5014849}, {"name": "吉田岳", "name_en": "Mt. Yoshida", "ele": 1165.2, "lat": 30.3993633, "lon": 130.4772806}, {"name": "坪切岳", "name_en": "Mt. Tsubokiri", "ele": 1409.3, "lat": 30.3720144, "lon": 130.4813468}, {"name": "障子岳", "name_en": "Mt. Shoji", "ele": 1549.0, "lat": 30.3589156, "lon": 130.4858529}, {"name": "耳崩", "name_en": "Mt. Miminkue", "ele": 1077.0, "lat": 30.3839637, "lon": 130.5274379}, {"name": "羽神岳", "name_en": "Mt. Hagami", "ele": 1228.0, "lat": 30.3811685, "lon": 130.5543029}, {"name": "東峰", "name_en": "Mt. Toho", "ele": 1078.0, "lat": 30.3801874, "lon": 130.5634868}, {"name": "ジトンジ岳", "name_en": "Mt. Jitonji", "ele": 858.2, "lat": 30.340269, "lon": 130.5889463}, {"name": "尾立岳", "name_en": "Mt. Otate", "ele": 1061.0, "lat": 30.3236932, "lon": 130.5922293}, {"name": "前岳", "name_en": "Mt. Maedake", "ele": 965.8, "lat": 30.3084299, "lon": 130.6117344}, {"name": "モイヨ岳", "name_en": "Mt. Moiyo", "ele": 614.0, "lat": 30.2907926, "lon": 130.6130862}, {"name": "高平岳", "name_en": "Mt. Takahira", "ele": 493.0, "lat": 30.2753018, "lon": 130.6035161}, {"name": "トイモ岳", "name_en": "Mt. Toimo", "ele": 1021.0, "lat": 30.2778406, "lon": 130.586307}, {"name": "雪岳", "name_en": "Mt. Yukidake", "ele": 1256.0, "lat": 30.2865959, "lon": 130.5742264}, {"name": "割石岳", "name_en": "Mt. Wariishi", "ele": 1410.1, "lat": 30.2730688, "lon": 130.5545175}, {"name": "耳岳", "name_en": "Mt. Mimidake", "ele": 1202.0, "lat": 30.2665733, "lon": 130.5591524}, {"name": "芋塚岳", "name_en": "Mt. Imozuka", "ele": 794.0, "lat": 30.2537663, "lon": 130.5302381}, {"name": "破沙岳", "name_en": "Mt. Hasadake", "ele": 1259.0, "lat": 30.2654984, "lon": 130.5103898}, {"name": "七五岳", "name_en": "Mt. Shichigo", "ele": 1488.0, "lat": 30.280685, "lon": 130.4924726}, {"name": "烏帽子岳", "name_en": "Mt. Eboshi", "ele": 1614.0, "lat": 30.2836775, "lon": 130.5056798}, {"name": "ジンネム高盤岳", "name_en": "Mt. Jinnemukoban", "ele": 1734.0, "lat": 30.2899959, "lon": 130.5105614}, {"name": "鈴岳", "name_en": "Mt. Suzudake", "ele": 1637.6, "lat": 30.2810185, "lon": 130.5299377}, {"name": "ノンキ岳", "name_en": "Mt. Nonki", "ele": 1400.0, "lat": 30.2966103, "lon": 130.5463528}, {"name": "船行前岳", "name_en": "Mount Funayukimae", "ele": 943.5, "lat": 30.3525832, "lon": 130.6290722}, {"name": "中島権現岳", "name_en": "Mt. Nakashimagongen", "ele": 647.0, "lat": 30.3447134, "lon": 130.6034088}, {"name": "愛子岳", "name_en": "Mount Aiko", "ele": 1235.0, "lat": 30.3660253, "lon": 130.6002116}, {"name": "楠川前岳", "name_en": "Mt. Kusugawamae", "ele": 1124.8, "lat": 30.3764481, "lon": 130.5916393}, {"name": "ヨウジガ高岳", "name_en": "Mt. Yojigataka", "ele": 1376.0, "lat": 30.3699687, "lon": 130.5509877}, {"name": "小高塚岳", "name_en": "Mt. Kotakatsuka", "ele": 1501.0, "lat": 30.3587212, "lon": 130.5196917}, {"name": "高塚山", "name_en": "Mt. Takatsuka", "ele": 1396.3, "lat": 30.364683, "lon": 130.5333173}, {"name": "石塚山", "name_en": "Mt. Ishizuka", "ele": 1589.3, "lat": 30.3234616, "lon": 130.5538523}, {"name": "投石岳", "name_en": "Mt. Nageshi", "ele": 1830.0, "lat": 30.3225263, "lon": 130.5123854}, {"name": "安房岳", "name_en": "Mt. Anbo", "ele": 1847.0, "lat": 30.3272493, "lon": 130.5119991}, {"name": "翁岳", "name_en": "Mt. Okina", "ele": 1860.0, "lat": 30.3312684, "lon": 130.5125248}, {"name": "古岳", "name_en": "Mt. Furudake", "ele": 648.9, "lat": 30.4400531, "lon": 130.2134907}, {"name": "七ン岳", "name_en": null, "ele": 183.0, "lat": 28.4110115, "lon": 129.6627044}, {"name": "アヤマン", "name_en": "Mt. Ayaman", "ele": null, "lat": 28.4193626, "lon": 129.6704292}, {"name": "大刈山", "name_en": "Mt. Okari", "ele": 180.7, "lat": 28.4323739, "lon": 129.6877241}, {"name": "高岳", "name_en": "Mt. Takadake", "ele": 183.6, "lat": 28.4710869, "lon": 129.687134}, {"name": "松長山", "name_en": "Mt. Matsunaga", "ele": 455.1, "lat": 28.3257834, "lon": 129.4658947}, {"name": "タカバチ山", "name_en": "Mt. Takabachi", "ele": 485.2, "lat": 28.2892186, "lon": 129.4194925}, {"name": "ヤクガチョボシ岳", "name_en": "Mt. Yakugachoboshi", "ele": 440.5, "lat": 28.270537, "lon": 129.3796}, {"name": "肥後山", "name_en": "Mt. Higo", "ele": 332.8, "lat": 28.2131205, "lon": 129.3810296}, {"name": "鳥ヶ峰", "name_en": "Mt. Torigamine", "ele": 467.5, "lat": 28.2160915, "lon": 129.4035119}, {"name": "烏帽子岳", "name_en": "Mt. Eboshi", "ele": 322.0, "lat": 28.2911553, "lon": 129.2026842}, {"name": "子ヘマ岳", "name_en": "Mt. Kohema", "ele": 383.0, "lat": 28.2309213, "lon": 129.1825783}, {"name": "戸倉山", "name_en": "Mt. Tokura", "ele": 410.9, "lat": 28.2498343, "lon": 129.1696179}, {"name": "高バチ", "name_en": "Mt. Takabachi", "ele": 389.0, "lat": 28.250288, "lon": 129.1829431}, {"name": "烏帽子岳", "name_en": "Mt. Eboshi", "ele": 364.0, "lat": 28.2413754, "lon": 129.1945571}, {"name": "冠岳", "name_en": "Mt. Kanmuri", "ele": 434.7, "lat": 28.2345534, "lon": 129.2321804}, {"name": "南郷山", "name_en": "Mt. Nango", "ele": 313.0, "lat": 28.2473203, "lon": 129.2738686}, {"name": "烏帽子山", "name_en": "Mt. Eboshi", "ele": 363.5, "lat": 28.21417, "lon": 129.3277824}, {"name": "181", "name_en": null, "ele": null, "lat": 28.185993, "lon": 129.2701149}, {"name": "油井岳", "name_en": "Mt. Yui", "ele": 482.6, "lat": 28.1836667, "lon": 129.3133736}, {"name": "高知山", "name_en": "Mt. Kochi", "ele": 411.0, "lat": 28.1667187, "lon": 129.3176651}, {"name": "キヤンマ山", "name_en": "Mt. Kiyanma", "ele": 414.8, "lat": 28.1530884, "lon": 129.3318057}, {"name": "児島", "name_en": "Mt. Kojima", "ele": 64.0, "lat": 31.8540399, "lon": 129.8597503}, {"name": "繩瀬山", "name_en": "Mt. Noze", "ele": 306.0, "lat": 31.8587513, "lon": 129.8232508}, {"name": "橋掛山", "name_en": "Mt. Hashikake", "ele": 295.8, "lat": 31.8511328, "lon": 129.8246562}, {"name": "大蔵岳", "name_en": "Mt. Okura", "ele": 254.7, "lat": 31.8776488, "lon": 129.8504591}, {"name": "天狗山", "name_en": "Mt. Tengu", "ele": 229.0, "lat": 31.8642915, "lon": 129.854815}, {"name": "遠目山", "name_en": "Mt. Tome", "ele": 194.6, "lat": 31.8409436, "lon": 129.8525619}, {"name": "遠目木山", "name_en": "Mt. Tomeki", "ele": 422.7, "lat": 31.8337248, "lon": 129.8971724}, {"name": "牟礼岳", "name_en": "Mt. Mure", "ele": 382.7, "lat": 31.8321296, "lon": 129.9080515}, {"name": "ひょうたん岳", "name_en": "Mt. Hyotan", "ele": 364.5, "lat": 31.6533997, "lon": 129.6655476}, {"name": "勝山", "name_en": "Mt. Katsuyama", "ele": 389.5, "lat": 31.6481573, "lon": 129.7123361}, {"name": "口岳", "name_en": "Mt. Kuchidake", "ele": 487.3, "lat": 31.6583313, "lon": 129.7134411}, {"name": "谷山", "name_en": "Mt. Taniyama", "ele": 445.7, "lat": 31.6811136, "lon": 129.6915758}, {"name": "青潮岳", "name_en": "Mt. Aoshio", "ele": 510.2, "lat": 31.6856602, "lon": 129.7225714}, {"name": "小田山", "name_en": "Mt. Oda", "ele": 425.9, "lat": 31.7191553, "lon": 129.7641778}, {"name": "浮水山", "name_en": "Mt. Ukimizu", "ele": 158.2, "lat": 31.7560959, "lon": 129.7790909}, {"name": "帽子山", "name_en": "Mount Boshi", "ele": 267.0, "lat": 32.9625144, "lon": 129.1151369}, {"name": "丹那山", "name_en": "Mt. Tanna", "ele": null, "lat": 32.9839181, "lon": 129.1523123}, {"name": "浅子山", "name_en": "Mount Asago", "ele": null, "lat": 32.9934189, "lon": 129.0760651}, {"name": "三峰山", "name_en": "Mount Sanpo", "ele": null, "lat": 32.9442029, "lon": 129.0779185}, {"name": "長迫山", "name_en": "Mount Nagasako", "ele": null, "lat": 32.9518107, "lon": 129.0775859}, {"name": "地蔵山", "name_en": "Mt. Jizo", "ele": null, "lat": 32.9663401, "lon": 129.0423524}, {"name": "小島山", "name_en": "Mount Kojima", "ele": null, "lat": 32.9796702, "lon": 129.0761912}, {"name": "高山", "name_en": "Mt. Takayama", "ele": 236.0, "lat": 32.89675, "lon": 129.0767383}, {"name": "神山", "name_en": "Mt. Kamiyama", "ele": 185.0, "lat": 32.8805062, "lon": 129.0632415}, {"name": "只狩山", "name_en": "Mt. Tadakari", "ele": 84.0, "lat": 32.6084171, "lon": 128.7657201}, {"name": "犬卸山", "name_en": "Mt. Inuoroshi", "ele": null, "lat": 32.7965732, "lon": 128.8422972}, {"name": "牡鹿山", "name_en": "Mt. Ojika", "ele": null, "lat": 32.7984221, "lon": 128.8451564}, {"name": "徳女岳", "name_en": "Mt. Tokujo", "ele": 204.0, "lat": 32.7967446, "lon": 128.8653374}, {"name": "京ノ岳", "name_en": "Mt. Kyonotake", "ele": null, "lat": 32.7614477, "lon": 128.6668968}, {"name": "ゼンダナ", "name_en": "Mt. Zendana", "ele": 215.0, "lat": 32.7057813, "lon": 128.8182056}, {"name": "鷲ヶ岳", "name_en": "Mt. Washigataake", "ele": 215.1, "lat": 32.7874639, "lon": 128.8052881}, {"name": "城岳", "name_en": "Mt. Shirodake", "ele": 215.4, "lat": 32.7433383, "lon": 128.748672}, {"name": "坊主岳", "name_en": "Mt. Bozugadake", "ele": 209.7, "lat": 32.7439429, "lon": 128.7165713}, {"name": "障子ヶ岳", "name_en": "Mt. Shojigatake", "ele": null, "lat": 32.7422644, "lon": 128.7295532}, {"name": "小岳", "name_en": "Mt. Kodake", "ele": 207.2, "lat": 31.4041159, "lon": 130.1994038}, {"name": "西の丘", "name_en": "Mt. Nishinooka", "ele": 359.9, "lat": 31.3790493, "lon": 130.181905}, {"name": "平道山", "name_en": "Mt. Hiramichi", "ele": 362.0, "lat": 31.3724083, "lon": 130.1962709}, {"name": "甚九郎岡", "name_en": "Mt. Jinkurooka", "ele": 250.0, "lat": 31.4044181, "lon": 130.1785898}, {"name": "女岳", "name_en": "Mt. Medake", "ele": 418.0, "lat": 31.3895548, "lon": 130.1605976}, {"name": "乗越の岡", "name_en": "Mt. Norikoshinooka", "ele": 327.5, "lat": 31.4298441, "lon": 130.1607907}, {"name": "鼻山", "name_en": "Mt. Hanayama", "ele": 326.0, "lat": 31.425404, "lon": 130.1506626}, {"name": "鉈山", "name_en": "Mt. Natayama", "ele": 373.2, "lat": 31.4207256, "lon": 130.1603401}, {"name": "中岳", "name_en": "Mt. Nakadake", "ele": 287.5, "lat": 31.4315926, "lon": 130.3570747}, {"name": "白亀山", "name_en": "Mt. Shirakame", "ele": 98.8, "lat": 31.4190867, "lon": 130.3105116}, {"name": "烏山", "name_en": "Mt. Karasu", "ele": 203.5, "lat": 31.4084654, "lon": 130.2924979}, {"name": "今岳", "name_en": "Mt. Imadake", "ele": 267.5, "lat": 31.3284194, "lon": 130.2027511}, {"name": "長者山", "name_en": "Mt. Choja", "ele": 250.5, "lat": 31.3258899, "lon": 130.1888949}, {"name": "園見岳", "name_en": "Mt. Sonomi", "ele": 262.3, "lat": 31.2890126, "lon": 130.2731538}, {"name": "草野岳", "name_en": "Mt. Sono", "ele": 448.7, "lat": 31.304231, "lon": 130.2473241}, {"name": "尊牛山", "name_en": "Mt. Songyu", "ele": 318.0, "lat": 31.2958062, "lon": 130.2333605}, {"name": "車岳", "name_en": "Mt. Kuruma", "ele": 356.8, "lat": 31.2912497, "lon": 130.2264941}, {"name": "エイ岳", "name_en": "Mt. Eidake", "ele": 181.5, "lat": 31.2912405, "lon": 130.2021289}, {"name": "番屋山", "name_en": "Mt. Banya", "ele": 261.1, "lat": 31.2740669, "lon": 130.2457952}, {"name": "高倉山", "name_en": "Mt. Takakura", "ele": 446.0, "lat": 31.4784887, "lon": 130.3770518}, {"name": "辻岳", "name_en": "Mt. Tsujidake", "ele": null, "lat": 31.1667919, "lon": 130.7825696}, {"name": "木場岳", "name_en": "Mt. Kobadake", "ele": 890.8, "lat": 31.1255267, "lon": 130.8068919}, {"name": "野首嶽", "name_en": "Mt. Nokubi", "ele": 897.4, "lat": 31.136437, "lon": 130.7705104}, {"name": "刈又山", "name_en": null, "ele": 370.6, "lat": 32.791811, "lon": 129.893181}, {"name": "帆場岳", "name_en": null, "ele": 506.0, "lat": 32.793651, "lon": 129.9075791}, {"name": "烽火山", "name_en": null, "ele": 426.0, "lat": 32.764181, "lon": 129.906914}, {"name": "288M", "name_en": null, "ele": 288.0, "lat": 32.7652632, "lon": 129.8769813}, {"name": "258M", "name_en": null, "ele": 258.0, "lat": 32.7769997, "lon": 129.8871761}, {"name": "285M", "name_en": null, "ele": 285.0, "lat": 32.7651864, "lon": 129.8830025}, {"name": "264M", "name_en": null, "ele": 264.0, "lat": 32.776595, "lon": 129.8959268}, {"name": "308M", "name_en": null, "ele": 308.0, "lat": 32.7809068, "lon": 129.9003685}, {"name": "408M", "name_en": null, "ele": 408.0, "lat": 32.7814119, "lon": 129.9131466}, {"name": "415M", "name_en": null, "ele": 415.0, "lat": 32.7887631, "lon": 129.9085225}, {"name": "494M", "name_en": null, "ele": 494.0, "lat": 32.7947112, "lon": 129.9100567}, {"name": "235M", "name_en": null, "ele": 235.2, "lat": 32.7641592, "lon": 129.8507584}, {"name": "269M", "name_en": null, "ele": 269.0, "lat": 32.7639968, "lon": 129.8410166}, {"name": "296M", "name_en": null, "ele": 296.0, "lat": 32.7683619, "lon": 129.8317472}, {"name": "299M", "name_en": null, "ele": 299.0, "lat": 32.7728455, "lon": 129.8343436}, {"name": "365M", "name_en": null, "ele": 365.4, "lat": 32.8048839, "lon": 129.919571}, {"name": "烏帽子岳", "name_en": "Eboshidake", "ele": 413.0, "lat": 32.8149593, "lon": 129.8181283}, {"name": "鳴鼓岳", "name_en": "Nazumidake", "ele": 392.0, "lat": 32.8205432, "lon": 129.8193924}, {"name": "矢筈岳", "name_en": null, "ele": 336.0, "lat": 32.8101829, "lon": 129.7978381}, {"name": "403M", "name_en": null, "ele": 403.3, "lat": 32.8280346, "lon": 129.9216114}, {"name": "333M", "name_en": null, "ele": 333.0, "lat": 32.8246868, "lon": 129.9184655}, {"name": "363M", "name_en": null, "ele": 363.0, "lat": 32.82473, "lon": 129.932494}, {"name": "359M", "name_en": null, "ele": 359.0, "lat": 32.8168859, "lon": 129.9182247}, {"name": "328M", "name_en": null, "ele": 328.0, "lat": 32.8118094, "lon": 129.9102102}, {"name": "猪見岳", "name_en": "Inomidake/Shishimidake", "ele": 363.4, "lat": 32.8338445, "lon": 129.9121629}, {"name": "Kotonoodake", "name_en": null, "ele": 451.3, "lat": 32.8518814, "lon": 129.8940258}, {"name": "岡岳", "name_en": null, "ele": 403.0, "lat": 32.8493848, "lon": 129.88923}, {"name": "仙吾岳", "name_en": null, "ele": 375.6, "lat": 32.8384014, "lon": 129.886183}, {"name": "Marutadake", "name_en": null, "ele": 333.0, "lat": 32.835048, "lon": 129.8897342}, {"name": "344M", "name_en": null, "ele": 344.0, "lat": 32.8059256, "lon": 129.8097508}, {"name": "364M", "name_en": null, "ele": 364.0, "lat": 32.7850003, "lon": 129.8238283}, {"name": "宇土山", "name_en": null, "ele": 383.8, "lat": 32.8277447, "lon": 129.8183337}, {"name": "木場普賢山", "name_en": null, "ele": 362.0, "lat": 32.7755027, "lon": 129.9140182}, {"name": "321M", "name_en": null, "ele": 321.0, "lat": 32.8013424, "lon": 129.928563}, {"name": "371M", "name_en": null, "ele": 371.4, "lat": 32.7697912, "lon": 129.917523}, {"name": "武功山", "name_en": null, "ele": 349.0, "lat": 32.7588612, "lon": 129.9066118}, {"name": "300M", "name_en": null, "ele": 299.6, "lat": 32.7538175, "lon": 129.9230376}, {"name": "352M", "name_en": null, "ele": 352.0, "lat": 32.7462198, "lon": 129.9305156}, {"name": "茂木山", "name_en": null, "ele": 409.3, "lat": 32.7445684, "lon": 129.918274}, {"name": "363M", "name_en": null, "ele": 363.0, "lat": 32.7296326, "lon": 129.9155811}, {"name": "矢岳", "name_en": "Yadake", "ele": 284.0, "lat": 32.7335044, "lon": 129.9054852}, {"name": "星取山", "name_en": "Hoshitori Yama", "ele": 270.1, "lat": 32.7217711, "lon": 129.8757771}, {"name": "天門峰", "name_en": null, "ele": null, "lat": 32.7260711, "lon": 129.8447651}, {"name": "八氣山", "name_en": null, "ele": 198.0, "lat": 32.7620092, "lon": 129.8945782}, {"name": "帆掛山", "name_en": null, "ele": 172.2, "lat": 32.7358501, "lon": 129.8439488}, {"name": "立神山", "name_en": null, "ele": 229.0, "lat": 32.7402541, "lon": 129.8424253}, {"name": "不動山", "name_en": null, "ele": 354.8, "lat": 32.7455016, "lon": 129.9352244}, {"name": "天狗山", "name_en": null, "ele": null, "lat": 32.7746754, "lon": 129.8826584}, {"name": "328M", "name_en": null, "ele": 328.0, "lat": 32.8089603, "lon": 129.9237317}, {"name": "前岳", "name_en": null, "ele": 366.0, "lat": 32.8126934, "lon": 129.9269396}, {"name": "月屋山", "name_en": null, "ele": 160.1, "lat": 31.8469224, "lon": 130.2211618}, {"name": "222M", "name_en": null, "ele": 222.3, "lat": 32.81265, "lon": 129.7835168}, {"name": "飯盛岳", "name_en": null, "ele": 246.0, "lat": 32.8142863, "lon": 129.7876095}, {"name": "七郎山", "name_en": "Mt. Shichiro", "ele": 392.9, "lat": 32.2759817, "lon": 130.2364198}, {"name": "行人岳", "name_en": null, "ele": 393.6, "lat": 32.175042, "lon": 130.1662139}, {"name": "大中岳", "name_en": null, "ele": 403.0, "lat": 32.1586491, "lon": 130.1576223}, {"name": "矢岳", "name_en": null, "ele": 401.8, "lat": 32.1494337, "lon": 130.1603338}, {"name": "戸町岳", "name_en": null, "ele": 427.2, "lat": 32.6990284, "lon": 129.8831649}, {"name": "熊ヶ峰", "name_en": null, "ele": 569.0, "lat": 32.6861573, "lon": 129.8775967}, {"name": "悪所岳", "name_en": null, "ele": 506.0, "lat": 32.6799219, "lon": 129.8878481}, {"name": "小八郎岳", "name_en": null, "ele": 564.0, "lat": 32.6657927, "lon": 129.860334}, {"name": "寺岳", "name_en": null, "ele": 451.8, "lat": 32.6535807, "lon": 129.8459466}, {"name": "松尾岳", "name_en": null, "ele": 296.9, "lat": 32.6634353, "lon": 129.8442622}, {"name": "兜岳", "name_en": null, "ele": 462.0, "lat": 32.6811727, "lon": 129.860967}, {"name": "秋葉山", "name_en": null, "ele": 254.4, "lat": 32.6395512, "lon": 129.8179444}, {"name": "熊ノ岳", "name_en": null, "ele": 288.4, "lat": 32.6176036, "lon": 129.815348}, {"name": "二ノ岳", "name_en": null, "ele": 325.5, "lat": 32.6098542, "lon": 129.804587}, {"name": "殿隠山", "name_en": null, "ele": 263.0, "lat": 32.5936846, "lon": 129.7861226}, {"name": "遠見山", "name_en": null, "ele": 259.0, "lat": 32.5896169, "lon": 129.7788377}, {"name": "権現山", "name_en": null, "ele": 198.5, "lat": 32.5798175, "lon": 129.7405251}, {"name": "行者山", "name_en": null, "ele": 118.0, "lat": 32.553605, "lon": 129.7786124}, {"name": "祇園山", "name_en": null, "ele": 51.0, "lat": 32.5738686, "lon": 129.7812625}, {"name": "弁天山", "name_en": null, "ele": 110.0, "lat": 32.6101434, "lon": 129.7845133}, {"name": "城山", "name_en": null, "ele": 350.5, "lat": 32.6731488, "lon": 129.8296817}, {"name": "遠見岳", "name_en": null, "ele": 120.0, "lat": 32.6872634, "lon": 129.805456}, {"name": "遠見岳", "name_en": null, "ele": 149.3, "lat": 32.6932228, "lon": 129.7793205}, {"name": "高岳", "name_en": null, "ele": 103.9, "lat": 32.6953627, "lon": 129.8154445}, {"name": "大久保山", "name_en": null, "ele": 233.8, "lat": 32.7131117, "lon": 129.8567613}, {"name": "大岳", "name_en": null, "ele": 286.0, "lat": 32.8295429, "lon": 129.8052851}, {"name": "火焼山", "name_en": null, "ele": 252.2, "lat": 32.8097185, "lon": 129.8910651}, {"name": "津屋岳", "name_en": null, "ele": 302.7, "lat": 32.8114519, "lon": 129.9465785}, {"name": "四牛山", "name_en": null, "ele": 215.0, "lat": 32.8059242, "lon": 129.9720917}, {"name": "城山", "name_en": null, "ele": 95.0, "lat": 32.8346845, "lon": 129.9915663}, {"name": "鎌倉山", "name_en": null, "ele": 358.2, "lat": 32.8375256, "lon": 129.9384138}, {"name": "普賢岳", "name_en": null, "ele": 322.0, "lat": 32.8441916, "lon": 129.9354473}, {"name": "水洗山", "name_en": null, "ele": 290.0, "lat": 32.8491851, "lon": 129.9377647}, {"name": "稗ノ岳", "name_en": null, "ele": 249.0, "lat": 32.8303588, "lon": 129.89449}, {"name": "赤城山", "name_en": null, "ele": 226.0, "lat": 32.3548768, "lon": 130.1631357}, {"name": "古江岳", "name_en": null, "ele": 342.0, "lat": 32.2886684, "lon": 130.0897865}, {"name": "平家城山", "name_en": null, "ele": 317.3, "lat": 32.3787943, "lon": 130.164416}, {"name": "飯盛山", "name_en": null, "ele": 339.0, "lat": 32.7478405, "lon": 129.9069163}, {"name": "権現山", "name_en": null, "ele": 401.9, "lat": 32.2342394, "lon": 130.0278585}, {"name": "遠見岳", "name_en": null, "ele": 223.6, "lat": 32.2443565, "lon": 129.9738989}, {"name": "石神山", "name_en": null, "ele": 334.0, "lat": 32.2852153, "lon": 130.0116253}, {"name": "五通山", "name_en": null, "ele": 266.1, "lat": 32.2934936, "lon": 130.036514}, {"name": "高取山", "name_en": null, "ele": 341.2, "lat": 32.2596826, "lon": 130.0420661}, {"name": "観音山", "name_en": null, "ele": 297.0, "lat": 32.2652119, "lon": 130.0527122}, {"name": "日嶽", "name_en": null, "ele": null, "lat": 32.9518729, "lon": 130.5214368}, {"name": "宇土山", "name_en": null, "ele": null, "lat": 31.4167007, "lon": 130.2530352}, {"name": "次郎丸嶽", "name_en": null, "ele": 396.8, "lat": 32.4788451, "lon": 130.4066606}, {"name": "太郎丸嶽", "name_en": null, "ele": 281.0, "lat": 32.4861134, "lon": 130.4091446}, {"name": "堂風岳", "name_en": null, "ele": 239.0, "lat": 32.8535007, "lon": 129.8004119}, {"name": "迎岳", "name_en": null, "ele": 175.0, "lat": 32.8574483, "lon": 129.8124067}, {"name": "虚空蔵山", "name_en": null, "ele": 295.6, "lat": 32.8368704, "lon": 129.9595634}, {"name": "土佐賀山", "name_en": null, "ele": 330.8, "lat": 32.8506402, "lon": 129.7363985}, {"name": "大野岳", "name_en": null, "ele": 352.3, "lat": 32.8650781, "lon": 129.6918255}, {"name": "クルマキ山", "name_en": null, "ele": 347.6, "lat": 32.867349, "lon": 129.7280675}, {"name": "霞岳", "name_en": null, "ele": 313.7, "lat": 32.8703498, "lon": 129.760989}, {"name": "三方山", "name_en": null, "ele": 412.0, "lat": 32.8793578, "lon": 129.7449098}, {"name": "妙正岳", "name_en": null, "ele": 304.9, "lat": 32.8796731, "lon": 129.711586}, {"name": "牧野岳", "name_en": null, "ele": 379.2, "lat": 32.8720155, "lon": 129.7168929}, {"name": "野々岳", "name_en": null, "ele": 325.0, "lat": 32.8384036, "lon": 129.7379204}, {"name": "御岳", "name_en": null, "ele": 167.0, "lat": 32.8218876, "lon": 129.7381403}, {"name": "原山", "name_en": null, "ele": 392.0, "lat": 32.9071886, "lon": 129.7013377}, {"name": "矢筈嶽", "name_en": null, "ele": 626.0, "lat": 32.4179576, "lon": 130.3163556}, {"name": "佐敷岳", "name_en": null, "ele": 502.0, "lat": 32.6584603, "lon": 129.8515026}, {"name": "金比羅岳", "name_en": null, "ele": 278.0, "lat": 32.7463431, "lon": 129.9438825}, {"name": "弁天山", "name_en": null, "ele": 28.0, "lat": 32.5768861, "lon": 129.7830406}, {"name": "遠見岳", "name_en": null, "ele": 144.9, "lat": 32.9623608, "lon": 129.7940325}, {"name": "張岳", "name_en": null, "ele": 144.3, "lat": 32.950392, "lon": 129.8061688}, {"name": "杉山", "name_en": null, "ele": 334.6, "lat": 32.9088811, "lon": 129.6835288}, {"name": "万助山", "name_en": null, "ele": 423.0, "lat": 32.9184463, "lon": 129.7133228}, {"name": "城の辻", "name_en": null, "ele": 102.4, "lat": 32.9128075, "lon": 129.7793615}, {"name": "柴尾山", "name_en": null, "ele": 225.7, "lat": 32.6223354, "lon": 130.4412757}, {"name": "高山", "name_en": null, "ele": 166.7, "lat": 32.565082, "lon": 130.4783372}, {"name": "飛岳", "name_en": "Hidake", "ele": 228.6, "lat": 32.610824, "lon": 130.4528166}, {"name": "樫井岳", "name_en": null, "ele": 404.0, "lat": 32.9548251, "lon": 129.7415538}, {"name": "峯岳", "name_en": null, "ele": 165.2, "lat": 32.9748085, "lon": 129.7894044}, {"name": "鳥岳", "name_en": null, "ele": 172.0, "lat": 32.9670452, "lon": 129.7661765}, {"name": "ゲキト岳", "name_en": null, "ele": 335.6, "lat": 32.9773241, "lon": 129.6864827}, {"name": "ヒウ山", "name_en": null, "ele": 229.0, "lat": 32.975398, "lon": 129.6387179}, {"name": "権現岳", "name_en": null, "ele": 151.4, "lat": 32.9652989, "lon": 129.6561844}, {"name": "城ノ尾岳", "name_en": null, "ele": 216.2, "lat": 32.9612302, "lon": 129.6692951}, {"name": "ヌク山", "name_en": null, "ele": 250.0, "lat": 32.9645248, "lon": 129.6758611}, {"name": "嶽山", "name_en": null, "ele": 164.0, "lat": 32.9268001, "lon": 129.6011991}, {"name": "遠見山", "name_en": null, "ele": 217.1, "lat": 32.9282072, "lon": 129.6114049}, {"name": "飯盛山", "name_en": null, "ele": 530.7, "lat": 32.9329578, "lon": 129.7383574}, {"name": "高帆山", "name_en": null, "ele": 232.0, "lat": 32.9837681, "lon": 129.6359767}, {"name": "鶴山", "name_en": null, "ele": 447.0, "lat": 32.9434676, "lon": 129.7563971}, {"name": "焼山", "name_en": null, "ele": 416.4, "lat": 32.9303932, "lon": 129.7044803}, {"name": "八人ヶ岳", "name_en": null, "ele": 218.0, "lat": 32.9975994, "lon": 129.7202478}, {"name": "343", "name_en": null, "ele": null, "lat": 32.9045396, "lon": 129.6881787}, {"name": "355.6", "name_en": null, "ele": null, "lat": 32.7816347, "lon": 129.9200916}, {"name": "蓮華石岳", "name_en": null, "ele": 280.2, "lat": 32.8159498, "lon": 130.1035727}, {"name": "獅子喰岳", "name_en": null, "ele": 234.0, "lat": 32.8150662, "lon": 130.1138295}, {"name": "上山", "name_en": null, "ele": 122.5, "lat": 32.8404245, "lon": 130.0437992}, {"name": "御館山", "name_en": null, "ele": 99.9, "lat": 32.8469145, "lon": 130.0354711}, {"name": "牟礼ヶ岡", "name_en": "Muregaoka", "ele": null, "lat": 31.6704931, "lon": 130.5971074}, {"name": "飯盛岳", "name_en": null, "ele": null, "lat": 32.8176203, "lon": 129.8411116}, {"name": "黒岳", "name_en": null, "ele": 243.6, "lat": 32.6274655, "lon": 129.8036657}, {"name": "鶴山", "name_en": null, "ele": 251.0, "lat": 32.6321128, "lon": 129.8113285}, {"name": "どんの山", "name_en": null, "ele": null, "lat": 32.7327576, "lon": 129.8779526}, {"name": "大平岳", "name_en": null, "ele": null, "lat": 31.4749777, "lon": 130.4292788}, {"name": "弁天山", "name_en": null, "ele": null, "lat": 32.8964212, "lon": 130.7254208}, {"name": "重盤岩", "name_en": null, "ele": null, "lat": 32.2328755, "lon": 130.4591199}, {"name": "河内山", "name_en": "Mt. Kawachi", "ele": 363.2, "lat": 32.8289285, "lon": 130.6098917}, {"name": "焼山", "name_en": "Mt. Yakeyama", "ele": 145.4, "lat": 32.847825, "lon": 130.5947828}, {"name": "鞍岳（女岳）", "name_en": null, "ele": 1090.0, "lat": 32.9514034, "lon": 130.933297}, {"name": "遠目山", "name_en": "Mt. Tome", "ele": 848.8, "lat": 32.9987215, "lon": 130.0302204}, {"name": "絹笠山", "name_en": null, "ele": 879.0, "lat": 32.7371485, "lon": 130.2511777}, {"name": "高岩山", "name_en": null, "ele": 880.9, "lat": 32.7177253, "lon": 130.2699266}, {"name": "稲生山", "name_en": null, "ele": 845.0, "lat": 32.7607929, "lon": 130.3120971}, {"name": "高岳", "name_en": null, "ele": 771.2, "lat": 32.7369243, "lon": 130.2385674}, {"name": "矢岳", "name_en": "Yadake", "ele": 940.2, "lat": 32.7371432, "lon": 130.2707164}, {"name": "石割山", "name_en": null, "ele": 968.0, "lat": 32.7525772, "lon": 130.2717165}, {"name": "野岳", "name_en": null, "ele": 1142.0, "lat": 32.7453405, "lon": 130.2857347}, {"name": "愛宕山", "name_en": "Mount Atago", "ele": 291.4, "lat": 32.6270244, "lon": 130.1792604}, {"name": "岩戸山", "name_en": null, "ele": null, "lat": 32.6244207, "lon": 130.1568785}, {"name": "烽火山", "name_en": "Mount Noroshi", "ele": 94.0, "lat": 32.6012133, "lon": 130.1806479}, {"name": "鳳上岳", "name_en": "Mount Hojo", "ele": 409.7, "lat": 32.6412448, "lon": 130.2090037}, {"name": "猿葉山", "name_en": "Mt. Saruba", "ele": 364.0, "lat": 32.7675477, "lon": 130.2044291}, {"name": "七面山（眉山）", "name_en": null, "ele": 818.6, "lat": 32.77176, "lon": 130.3370188}, {"name": "天狗山", "name_en": null, "ele": 695.0, "lat": 32.7672411, "lon": 130.3420321}, {"name": "焼山", "name_en": null, "ele": 467.0, "lat": 32.7802729, "lon": 130.3134413}, {"name": "貝野岳", "name_en": null, "ele": 485.0, "lat": 32.7516224, "lon": 130.3240718}, {"name": "岩上山", "name_en": null, "ele": 513.0, "lat": 32.7597149, "lon": 130.3244245}, {"name": "舞岳", "name_en": null, "ele": 703.0, "lat": 32.7881502, "lon": 130.2881724}, {"name": "鳥甲山", "name_en": null, "ele": 822.2, "lat": 32.7881244, "lon": 130.2718873}, {"name": "富士山", "name_en": null, "ele": 180.0, "lat": 32.6265798, "lon": 130.1891421}, {"name": "明星岳", "name_en": "Myojyodake", "ele": 651.0, "lat": 30.3385988, "lon": 130.6335801}, {"name": "高塚山", "name_en": "Mt. Takatsuka", "ele": 349.7, "lat": 31.9030588, "lon": 130.4016527}, {"name": "鴉山", "name_en": "Mt. Karasu", "ele": 264.0, "lat": 31.8924335, "lon": 130.4263746}, {"name": "高倉山", "name_en": "Mt. Takakura", "ele": 386.1, "lat": 31.8716486, "lon": 130.4635217}, {"name": "須杭岡", "name_en": "Mt. Sukuioka", "ele": 240.2, "lat": 31.8680694, "lon": 130.4105829}, {"name": "牧之峰", "name_en": "Mt. Makinomine", "ele": 220.7, "lat": 31.8540131, "lon": 130.4347266}, {"name": "小毛野岡", "name_en": "Mt. Kogenooka", "ele": 163.6, "lat": 31.8434586, "lon": 130.4049421}, {"name": "遠見ヶ城", "name_en": "Mt. Toomigajo", "ele": 474.0, "lat": 31.8302283, "lon": 130.4751888}, {"name": "片城山", "name_en": "Mt. Katagi", "ele": 508.7, "lat": 31.8225643, "lon": 130.4611318}, {"name": "山王岳", "name_en": "Mt. Sanno", "ele": null, "lat": 31.8190815, "lon": 130.4581893}, {"name": "愛宕嶽", "name_en": "Mt. Atago", "ele": 446.0, "lat": 31.8152164, "lon": 130.4538077}, {"name": "飯盛山", "name_en": "Mt. Iimori", "ele": 432.0, "lat": 31.8174547, "lon": 130.4743408}, {"name": "舟見岳", "name_en": "Mt. Funami", "ele": 498.5, "lat": 31.8111545, "lon": 130.4675692}, {"name": "明石", "name_en": "Mt. Akashi", "ele": 483.3, "lat": 31.8193544, "lon": 130.5348092}, {"name": "千貫岳", "name_en": "Mt. Sengan", "ele": 422.0, "lat": 31.8088833, "lon": 130.514803}, {"name": "櫓石", "name_en": "Mt. Yaguraishi", "ele": 354.2, "lat": 31.8183172, "lon": 130.5921167}, {"name": "長尾山", "name_en": "Mt. Nagao", "ele": 680.0, "lat": 31.8464166, "lon": 130.6347376}, {"name": "烏帽子岳", "name_en": "Mt. Eboshi", "ele": 703.0, "lat": 31.8748785, "lon": 130.6060967}, {"name": "矢止岳", "name_en": "Mt. Yadome", "ele": 669.6, "lat": 31.8590989, "lon": 130.5613942}, {"name": "茶屋ヶ岡", "name_en": "Mt. Chayagaoka", "ele": 564.8, "lat": 31.9099744, "lon": 130.6061995}, {"name": "中岳", "name_en": "Mt. Nakadake", "ele": 654.3, "lat": 31.9025788, "lon": 130.5823513}, {"name": "釋師嶽", "name_en": "Mt. Shakushi", "ele": 136.0, "lat": 32.3961786, "lon": 130.4148602}, {"name": "泊山", "name_en": "Mt. Tomari", "ele": 192.6, "lat": 32.3746699, "lon": 130.4225099}, {"name": "横岳", "name_en": null, "ele": 1094.0, "lat": 31.462414, "lon": 130.7888774}, {"name": "白山", "name_en": null, "ele": 793.0, "lat": 31.463676, "lon": 130.7696272}, {"name": "鷲尾岳", "name_en": null, "ele": 411.0, "lat": 31.2228671, "lon": 130.5949319}, {"name": "鍋島岳", "name_en": null, "ele": 256.3, "lat": 31.2134152, "lon": 130.5673346}, {"name": "竹山", "name_en": null, "ele": 202.0, "lat": 31.1846572, "lon": 130.6206532}, {"name": "清見岳", "name_en": null, "ele": 402.0, "lat": 31.2487906, "lon": 130.5861977}, {"name": "Yayamadake - 矢山岳", "name_en": null, "ele": 869.5, "lat": 32.5480878, "lon": 130.7871877}, {"name": "Yoshinoyama - 吉野山", "name_en": null, "ele": 88.0, "lat": 32.7219763, "lon": 130.75004}, {"name": "鎌倉山", "name_en": "Mount Kamakura", "ele": 371.0, "lat": 32.6426645, "lon": 130.8520034}, {"name": "Johnohyama - 城尾山（ジョウノウヤマ）", "name_en": null, "ele": 534.0, "lat": 32.7317127, "lon": 130.9108433}, {"name": "熊野岳（二ノ岳）", "name_en": "Kumanodake", "ele": 685.5, "lat": 32.8444534, "lon": 130.6222691}, {"name": "三ノ岳", "name_en": "Sannotake", "ele": 681.5, "lat": 32.8548236, "lon": 130.6315084}, {"name": "Gankaisan - 雁回山", "name_en": null, "ele": 314.0, "lat": 32.6880861, "lon": 130.7088282}, {"name": "間谷山 西峰", "name_en": "Mount Mantai West Peak", "ele": 794.2, "lat": 32.6874907, "lon": 130.9036124}, {"name": "目丸山", "name_en": "Memaruyama", "ele": 1341.4, "lat": 32.6034606, "lon": 130.9683728}, {"name": "Takadakeyama - 高岳山", "name_en": null, "ele": 153.2, "lat": 32.6605726, "lon": 130.7236476}, {"name": "Araoyama - 荒尾山", "name_en": null, "ele": 445.0, "lat": 32.8194252, "lon": 130.6648044}, {"name": "Konohayama - 木葉山", "name_en": null, "ele": 284.0, "lat": 32.9276001, "lon": 130.6206738}, {"name": "洞が岳", "name_en": "Horagadake", "ele": 997.4, "lat": 32.6119197, "lon": 130.9288723}, {"name": "四万丈", "name_en": "Shimanjo", "ele": 750.4, "lat": 32.6093954, "lon": 130.895523}, {"name": "Ropponsugiyama - 六本杉山", "name_en": null, "ele": 1148.7, "lat": 32.4941274, "lon": 130.8081533}, {"name": "Chouraisan - 朝来山", "name_en": null, "ele": 464.5, "lat": 32.7707595, "lon": 130.8635979}, {"name": "茂見山", "name_en": "Azamiyama", "ele": 1158.5, "lat": 32.5997551, "lon": 130.9376282}, {"name": "Funanoyama - 船野山", "name_en": null, "ele": 307.8, "lat": 32.7643772, "lon": 130.832726}, {"name": "Suishozan - 水昌山", "name_en": null, "ele": 334.0, "lat": 32.6285168, "lon": 130.7705849}, {"name": "手蝶山", "name_en": "Mount Techo", "ele": 390.2, "lat": 32.6286696, "lon": 130.8382305}, {"name": "Shiroyama - 城山", "name_en": null, "ele": 621.8, "lat": 32.6878028, "lon": 130.9485609}, {"name": "Karasuyama - 烏山", "name_en": null, "ele": 465.0, "lat": 32.5682581, "lon": 130.7667683}, {"name": "Kunimiyama - 国見山", "name_en": null, "ele": 388.8, "lat": 32.9454864, "lon": 130.6372564}, {"name": "Toshimayama - 戸島山", "name_en": null, "ele": 132.5, "lat": 32.8199961, "lon": 130.8003927}, {"name": "Shiragatake - 白髪岳", "name_en": null, "ele": 1244.3, "lat": 32.4548279, "lon": 130.8193075}, {"name": "Eboshidake - 烏帽子岳", "name_en": null, "ele": 987.9, "lat": 31.8820067, "lon": 130.8495805}, {"name": "鵃岳", "name_en": "Bisyagodake", "ele": 885.0, "lat": 31.5459073, "lon": 130.7873384}, {"name": "Mansakayama - 万坂山", "name_en": null, "ele": 663.7, "lat": 32.6571616, "lon": 130.9395078}, {"name": "Mitsumineyama - 三峰山", "name_en": null, "ele": 714.1, "lat": 32.4937969, "lon": 130.7029565}, {"name": "Mantanyama-Higashimine - 間谷山東峰", "name_en": null, "ele": 798.1, "lat": 32.7008478, "lon": 130.9358631}, {"name": "鍋冠山", "name_en": null, "ele": 172.4, "lat": 32.7294311, "lon": 129.8688912}, {"name": "Yakushiyama - やくし山", "name_en": null, "ele": 999.1, "lat": 32.34432, "lon": 130.7441811}, {"name": "中嶽", "name_en": "Mount Naka", "ele": 267.8, "lat": 32.628077, "lon": 130.8227266}, {"name": "早川山", "name_en": "Mount Sogawa", "ele": 192.1, "lat": 32.6868823, "lon": 130.8135082}, {"name": "Hacchozan - 八丁山", "name_en": null, "ele": 376.1, "lat": 32.4810323, "lon": 130.642758}, {"name": "Dotokuzan - 道徳山", "name_en": null, "ele": 132.2, "lat": 32.6673685, "lon": 130.6940834}, {"name": "Ryuhozan - 竜峰山", "name_en": null, "ele": 517.2, "lat": 32.5178697, "lon": 130.6718123}, {"name": "Happohsan - 八峰山", "name_en": null, "ele": 574.3, "lat": 32.4911195, "lon": 130.6684547}, {"name": "独鈷山", "name_en": "Dokkosan", "ele": 118.0, "lat": 32.7882118, "lon": 130.6684922}, {"name": "Joyama - 城山", "name_en": null, "ele": 47.0, "lat": 32.7849184, "lon": 130.6612308}, {"name": "Onbosan - 御坊山", "name_en": null, "ele": 29.0, "lat": 32.7760314, "lon": 130.6423721}, {"name": "Kunimidake - 国見岳", "name_en": null, "ele": 1030.8, "lat": 32.4837065, "lon": 130.7818997}, {"name": "Hiraishiyama - 平石山", "name_en": null, "ele": 1129.9, "lat": 32.4882149, "lon": 130.8343821}, {"name": "Kunimiyama - 国見山", "name_en": null, "ele": 1253.4, "lat": 32.4353133, "lon": 130.8188418}, {"name": "Shiroyama - 城山", "name_en": null, "ele": 37.8, "lat": 32.7137507, "lon": 130.8003002}, {"name": "拝ヶ石山", "name_en": "Ogamigaishiyama", "ele": 448.1, "lat": 32.8398259, "lon": 130.6495039}, {"name": "Gongenyama - 権現山", "name_en": null, "ele": 753.0, "lat": 32.565513, "lon": 130.8163927}, {"name": "高ボ子山", "name_en": null, "ele": null, "lat": 31.3646872, "lon": 130.2102662}, {"name": "四坂岳", "name_en": "Mt. Shisaka", "ele": 744.5, "lat": 31.1573656, "lon": 130.911062}, {"name": "愛宕山", "name_en": null, "ele": null, "lat": 31.3024193, "lon": 130.9218369}, {"name": "八山岳", "name_en": null, "ele": 659.4, "lat": 31.2471398, "lon": 130.9028297}, {"name": "荒西山", "name_en": null, "ele": 833.8, "lat": 31.2005007, "lon": 130.91073}, {"name": "剣ヶ尾", "name_en": "Mt. Kengao", "ele": 498.6, "lat": 31.1778031, "lon": 130.8622607}, {"name": "鬼ヶ宇都", "name_en": "Mt. Onigauto", "ele": 455.0, "lat": 31.1853048, "lon": 130.8599524}, {"name": "彦山", "name_en": null, "ele": 380.1, "lat": 32.6688038, "lon": 130.1725365}, {"name": "米山", "name_en": null, "ele": 241.6, "lat": 32.5564726, "lon": 130.7227498}, {"name": "西岳", "name_en": null, "ele": 963.0, "lat": 32.9754803, "lon": 130.0861142}, {"name": "小岳", "name_en": null, "ele": 363.0, "lat": 32.748451, "lon": 129.9103464}, {"name": "Futatsukayama - 二塚山", "name_en": null, "ele": 118.0, "lat": 32.8954511, "lon": 130.7201677}, {"name": "Yokoyama - 横山", "name_en": null, "ele": 126.6, "lat": 32.9100662, "lon": 130.7104051}, {"name": "Yokohirayama - 横平山", "name_en": null, "ele": 143.7, "lat": 32.8968315, "lon": 130.6463603}, {"name": "石神山", "name_en": "Ishigamiyama", "ele": 123.0, "lat": 32.8088675, "lon": 130.6805549}, {"name": "Gongenyama - 権現山", "name_en": null, "ele": 272.9, "lat": 32.7888369, "lon": 130.6303159}, {"name": "Hanazonoyama - 花園山", "name_en": null, "ele": 61.4, "lat": 32.6800982, "lon": 130.6861148}, {"name": "Hanakue - ハナクエ", "name_en": null, "ele": 416.6, "lat": 32.6699152, "lon": 130.611909}, {"name": "Mimitoriyama - 耳鳥山", "name_en": null, "ele": 400.0, "lat": 32.6683309, "lon": 130.6181279}, {"name": "Takajoyama - 高城山", "name_en": null, "ele": 59.0, "lat": 32.7816967, "lon": 130.6310909}, {"name": "三谷山", "name_en": "Mitsudaniyama", "ele": 1138.6, "lat": 32.5733697, "lon": 130.8796328}, {"name": "Hetamiyama - 辺田見山", "name_en": null, "ele": 169.3, "lat": 32.7072291, "lon": 130.8134775}, {"name": "Shogunyama - 将軍山", "name_en": null, "ele": 439.0, "lat": 32.6930513, "lon": 130.8708289}, {"name": "Chorakuzan - 長楽山", "name_en": null, "ele": 160.9, "lat": 32.6559407, "lon": 130.8154713}, {"name": "Kamadayama - 竈田山", "name_en": null, "ele": 195.0, "lat": 32.6454683, "lon": 130.6123037}, {"name": "Myokenzan - 妙見山", "name_en": null, "ele": 116.4, "lat": 32.7009048, "lon": 130.8066644}, {"name": "Karasutohge - 烏峠", "name_en": null, "ele": 442.0, "lat": 32.3266299, "lon": 130.348789}, {"name": "Hidake - 日岳", "name_en": null, "ele": 243.2, "lat": 32.5928307, "lon": 130.7237669}, {"name": "Komenokubo - 米の窪", "name_en": null, "ele": 673.2, "lat": 32.3795145, "lon": 130.6913411}, {"name": "Gongenyama - 権現山", "name_en": null, "ele": 693.7, "lat": 32.275961, "lon": 130.6321233}, {"name": "唐渡山", "name_en": null, "ele": null, "lat": 32.7567675, "lon": 129.8907637}, {"name": "Hankohyama - 半高山", "name_en": null, "ele": 293.8, "lat": 32.8784158, "lon": 130.6418754}, {"name": "Genyama - 実山", "name_en": null, "ele": 198.0, "lat": 32.8544187, "lon": 130.6009818}, {"name": "祖母山", "name_en": "Mt. Sobosan", "ele": 1756.0, "lat": 32.82816, "lon": 131.3470533}, {"name": "中岳", "name_en": "Mt. Naka-dake", "ele": 1506.0, "lat": 32.8835302, "lon": 131.0970045}, {"name": "高岳", "name_en": "Mt. Taka-dake", "ele": 1592.4, "lat": 32.8843653, "lon": 131.1039104}, {"name": "根子岳", "name_en": "Mount Neko-dake", "ele": 1433.0, "lat": 32.883948, "lon": 131.1445928}, {"name": "行縢山", "name_en": null, "ele": 829.9, "lat": 32.6259455, "lon": 131.5723034}, {"name": "本谷山", "name_en": "Mt. Hontani", "ele": 1643.0, "lat": 32.811778, "lon": 131.421161}, {"name": "筒が岳", "name_en": "Mt. Tsutsugadake", "ele": 1292.9, "lat": 32.828288, "lon": 131.3084987}, {"name": "七年山", "name_en": "Shichinen Yama", "ele": 1032.0, "lat": 32.7713943, "lon": 131.5694919}, {"name": "黒門山", "name_en": "Kuromon Yama", "ele": 1037.0, "lat": 32.7734945, "lon": 131.5321515}, {"name": "木山内岳", "name_en": "Kiyamauchi Dake", "ele": 1401.2, "lat": 32.7587532, "lon": 131.5365425}, {"name": "夏木山", "name_en": "Mt. Natsuki", "ele": 1386.0, "lat": 32.77654, "lon": 131.5091523}, {"name": "天神原山", "name_en": null, "ele": 995.2, "lat": 32.7998389, "lon": 131.5458123}, {"name": "横岳", "name_en": null, "ele": null, "lat": 32.8131029, "lon": 131.5601406}, {"name": "新百姓山", "name_en": "Mt. Shinhyakusho", "ele": 1272.4, "lat": 32.8008052, "lon": 131.517443}, {"name": "桑原山(八本木)", "name_en": null, "ele": null, "lat": 32.7541398, "lon": 131.5687471}, {"name": "傾山", "name_en": "Mt. Katamuki", "ele": 1605.0, "lat": 32.8390075, "lon": 131.4756054}, {"name": "古祖母山", "name_en": "Mt. Furusobo", "ele": 1633.0, "lat": 32.8027598, "lon": 131.36433}, {"name": "大障子岩", "name_en": null, "ele": 1451.0, "lat": 32.8477794, "lon": 131.3872646}, {"name": "緩木山", "name_en": null, "ele": 1046.0, "lat": 32.8577589, "lon": 131.3280472}, {"name": "親父山", "name_en": "Mount Oyaji", "ele": 1644.0, "lat": 32.8075382, "lon": 131.3394843}, {"name": "障子岳", "name_en": "Mount Shoji", "ele": 1709.0, "lat": 32.8105837, "lon": 131.3481013}, {"name": "黒岳", "name_en": "Mount Kuro", "ele": 1578.0, "lat": 32.8081288, "lon": 131.3297215}, {"name": "大崩山", "name_en": "Mt. Okue", "ele": 1643.0, "lat": 32.7377706, "lon": 131.513084}, {"name": "向坂山", "name_en": "Mt. Mukozaka", "ele": 1685.0, "lat": 32.5796555, "lon": 131.1048809}, {"name": "小川岳", "name_en": "Mt. Ogawa", "ele": 1542.0, "lat": 32.6053952, "lon": 131.1206931}, {"name": "水呑の頭", "name_en": "Mt. Shiraiwa", "ele": 1646.7, "lat": 32.5624302, "lon": 131.1113183}, {"name": "白岩山", "name_en": null, "ele": 1620.0, "lat": 32.5657537, "lon": 131.1101585}, {"name": "夜峰山", "name_en": "Mt. Yomine", "ele": 913.0, "lat": 32.8560313, "lon": 131.037759}, {"name": "御竃門山", "name_en": "Mt. Okamado", "ele": 1153.0, "lat": 32.8602964, "lon": 131.0564641}, {"name": "杵島岳", "name_en": "Mt. Kishima-dake", "ele": 1326.0, "lat": 32.8927209, "lon": 131.0578984}, {"name": "烏帽子岳", "name_en": "Mt. Eboshi-dake", "ele": 1337.0, "lat": 32.8737101, "lon": 131.0579976}, {"name": "元越山", "name_en": null, "ele": null, "lat": 32.9042794, "lon": 131.963325}, {"name": "石鎚山", "name_en": null, "ele": null, "lat": 32.8755372, "lon": 131.9797359}, {"name": "色利山", "name_en": null, "ele": null, "lat": 32.8885939, "lon": 131.9543707}, {"name": "国見岳", "name_en": "Mt. Kunimi", "ele": 1739.0, "lat": 32.5470833, "lon": 131.0184162}, {"name": "烏帽子岳", "name_en": "Mt. Eboshi", "ele": 1692.2, "lat": 32.5153557, "lon": 131.0077962}, {"name": "白鳥山", "name_en": "Mt. Shiratori", "ele": 1639.2, "lat": 32.4627321, "lon": 131.0136938}, {"name": "双石山", "name_en": null, "ele": 509.0, "lat": 31.7981885, "lon": 131.3758897}, {"name": "尾鈴山", "name_en": "Mt. Osuzu", "ele": 1405.2, "lat": 32.2993152, "lon": 131.4265472}, {"name": "矢筈岳", "name_en": "Mt. Yahazu", "ele": 1330.0, "lat": 32.2805334, "lon": 131.4296719}, {"name": "長崎尾", "name_en": "Mt. Nagasakio", "ele": 1373.4, "lat": 32.2865466, "lon": 131.4259984}, {"name": "地蔵岳", "name_en": null, "ele": 1089.0, "lat": 32.2811275, "lon": 131.2966202}, {"name": "可愛岳", "name_en": "Eno Dake", "ele": 727.8, "lat": 32.6561382, "lon": 131.6560507}, {"name": "越敷岳", "name_en": null, "ele": 1069.0, "lat": 32.8531044, "lon": 131.3045282}, {"name": "諸塚山", "name_en": "Mt. Morotsuka", "ele": 1341.5, "lat": 32.6346325, "lon": 131.2874493}, {"name": "天主山", "name_en": null, "ele": 1494.0, "lat": 32.5996879, "lon": 131.0287689}, {"name": "ひえの山", "name_en": null, "ele": 918.0, "lat": 32.6521962, "lon": 131.4621272}, {"name": "比叡山", "name_en": null, "ele": 760.0, "lat": 32.6529538, "lon": 131.4478479}, {"name": "三尖", "name_en": null, "ele": 1474.0, "lat": 32.7998849, "lon": 131.3221346}, {"name": "お姫山", "name_en": null, "ele": null, "lat": 32.7668046, "lon": 131.4885801}, {"name": "乙女山", "name_en": null, "ele": 1517.0, "lat": 32.7669252, "lon": 131.4927352}, {"name": "五葉岳", "name_en": "Mt. Goyodake", "ele": 1570.0, "lat": 32.7713143, "lon": 131.4880605}, {"name": "鹿納の野", "name_en": "Mt. Kanonoya", "ele": 1548.0, "lat": 32.7600078, "lon": 131.4820731}, {"name": "鹿納山", "name_en": "Mt. Kano", "ele": 1567.0, "lat": 32.7562609, "lon": 131.4887291}, {"name": "ソデ尾", "name_en": null, "ele": 1392.0, "lat": 32.8444471, "lon": 131.486956}, {"name": "式部岳", "name_en": null, "ele": 1218.0, "lat": 32.117727, "lon": 131.205082}, {"name": "女鈴山", "name_en": null, "ele": 741.0, "lat": 31.606245, "lon": 131.259285}, {"name": "扇山", "name_en": "Mt. Ogi", "ele": 1661.7, "lat": 32.5169315, "lon": 131.127622}, {"name": "高森山", "name_en": null, "ele": 226.0, "lat": 32.7811619, "lon": 131.8883542}, {"name": "花切山", "name_en": null, "ele": 669.0, "lat": 31.7761762, "lon": 131.3987264}, {"name": "津島畑山", "name_en": null, "ele": 506.0, "lat": 32.7560235, "lon": 131.849809}, {"name": "倉木山", "name_en": null, "ele": 932.0, "lat": 32.8837036, "lon": 131.4008278}, {"name": "二つ岳", "name_en": "Mt. Futatsu", "ele": null, "lat": 32.7558963, "lon": 131.4010196}, {"name": "要山", "name_en": null, "ele": null, "lat": 32.774453, "lon": 131.5083291}, {"name": "鷹巣岳", "name_en": null, "ele": 720.0, "lat": 32.8796341, "lon": 131.590223}, {"name": "千間", "name_en": null, "ele": null, "lat": 32.8321109, "lon": 131.4656976}, {"name": "前障子", "name_en": null, "ele": null, "lat": 32.8619083, "lon": 131.3972767}, {"name": "トンギリ山", "name_en": null, "ele": null, "lat": 32.6376387, "lon": 131.1150756}, {"name": "黒峰", "name_en": null, "ele": 1283.2, "lat": 32.6425226, "lon": 131.1158016}, {"name": "ボタ野", "name_en": null, "ele": 882.0, "lat": 32.9610324, "lon": 131.0060764}, {"name": "楢尾岳", "name_en": "Mount Narao-dake", "ele": 1331.0, "lat": 32.8914609, "lon": 131.0923157}, {"name": "米塚", "name_en": "Komezuka", "ele": 954.0, "lat": 32.9056458, "lon": 131.0444065}, {"name": "白滝山", "name_en": "Mount Shirataki", "ele": 447.0, "lat": 32.7559863, "lon": 132.9964414}, {"name": "白皇山", "name_en": "Mount Shiraō", "ele": 458.0, "lat": 32.7449223, "lon": 133.0022708}, {"name": "時雨岳", "name_en": "Mt. Shigure", "ele": 1546.0, "lat": 32.46824, "lon": 131.035564}, {"name": "銚子笠", "name_en": "Mt. Choshigasa", "ele": 1489.2, "lat": 32.4386449, "lon": 131.019828}, {"name": "鉾岳", "name_en": null, "ele": 1277.0, "lat": 32.7031064, "lon": 131.5144894}, {"name": "雌鉾岳", "name_en": null, "ele": null, "lat": 32.7023211, "lon": 131.5146333}, {"name": "Kagamiyama - 鏡山", "name_en": null, "ele": 916.9, "lat": 32.674635, "lon": 131.175856}, {"name": "今ノ山", "name_en": "Mt. Imanoyama", "ele": 868.0, "lat": 32.8575666, "lon": 132.8500894}, {"name": "佩楯山", "name_en": null, "ele": 753.8, "lat": 32.9530461, "lon": 131.6458249}, {"name": "天女ヶ倉", "name_en": null, "ele": 238.0, "lat": 30.7436004, "lon": 131.0533415}, {"name": "江代山", "name_en": "Mt. Eshiro", "ele": 1607.0, "lat": 32.370504, "lon": 131.076074}, {"name": "石堂山", "name_en": "Mt. Ishido", "ele": 1547.0, "lat": 32.3002733, "lon": 131.1677872}, {"name": "鰐塚山", "name_en": "Wanitsuka Yama", "ele": 1118.1, "lat": 31.7688497, "lon": 131.2694868}, {"name": "オサレ山", "name_en": null, "ele": 1151.0, "lat": 32.2894044, "lon": 131.2834679}, {"name": "空野山", "name_en": "Mt. Soranno", "ele": 1126.6, "lat": 32.3090487, "lon": 131.2873877}, {"name": "国見山", "name_en": "Mt. Kunimi", "ele": 886.6, "lat": 31.3123748, "lon": 131.0189454}, {"name": "権現山", "name_en": null, "ele": 319.8, "lat": 31.351856, "lon": 131.016932}, {"name": "叶岳", "name_en": "Mt. Kanou", "ele": 187.2, "lat": 31.2753749, "lon": 131.0668633}, {"name": "湯ノ原川", "name_en": null, "ele": 1063.0, "lat": 32.2370178, "lon": 131.0362807}, {"name": "花立山", "name_en": null, "ele": 1105.6, "lat": 32.2295571, "lon": 131.013081}, {"name": "大洞山", "name_en": null, "ele": 465.5, "lat": 32.8196525, "lon": 132.674485}, {"name": "九輪森", "name_en": null, "ele": 294.8, "lat": 32.7987325, "lon": 132.9132588}, {"name": "鷹取山", "name_en": null, "ele": 307.6, "lat": 32.8052979, "lon": 132.9380756}, {"name": "妹背山", "name_en": null, "ele": 404.1, "lat": 32.7269608, "lon": 132.5541986}, {"name": "南平山", "name_en": null, "ele": 580.0, "lat": 32.8613522, "lon": 132.9023856}, {"name": "謙葉山", "name_en": null, "ele": 427.5, "lat": 32.8576267, "lon": 132.9250902}, {"name": "森山", "name_en": null, "ele": 96.1, "lat": 32.8646694, "lon": 132.9935919}, {"name": "葛篭山", "name_en": null, "ele": 471.4, "lat": 32.9080769, "lon": 132.964622}, {"name": "鬼付女峰", "name_en": null, "ele": 57.3, "lat": 32.0692871, "lon": 131.5013203}, {"name": "御成山", "name_en": null, "ele": null, "lat": 32.8065698, "lon": 131.1411327}, {"name": "往生岳", "name_en": "Mount Ōjō-dake", "ele": 1238.0, "lat": 32.9018723, "lon": 131.0656761}, {"name": "北塚", "name_en": null, "ele": 552.1, "lat": 32.9520733, "lon": 131.0592026}, {"name": "本塚", "name_en": null, "ele": 573.8, "lat": 32.9466174, "lon": 131.0575504}, {"name": "蛇ノ尾", "name_en": null, "ele": 754.2, "lat": 32.9091931, "lon": 131.0277831}, {"name": "灰塚", "name_en": null, "ele": null, "lat": 32.9459799, "lon": 131.062051}, {"name": "大矢野岳", "name_en": "Mount Oyano", "ele": 1236.0, "lat": 32.7888122, "lon": 131.0050696}, {"name": "太郎ヶ迫", "name_en": "Tarogasako", "ele": 1195.0, "lat": 32.7865664, "lon": 131.0213586}, {"name": "高城山", "name_en": "Mount Takashiro", "ele": 837.8, "lat": 32.8074309, "lon": 131.0153854}, {"name": "丸山", "name_en": "Mount Maru", "ele": 1187.0, "lat": 32.8675295, "lon": 131.1031551}, {"name": "高塚", "name_en": null, "ele": 727.3, "lat": 32.9170275, "lon": 131.0885702}, {"name": "Daikanbo lookout", "name_en": null, "ele": 936.1, "lat": 32.9963743, "lon": 131.0672259}, {"name": "象ヶ鼻", "name_en": null, "ele": 790.0, "lat": 32.9782152, "lon": 131.1072266}, {"name": "三方岳", "name_en": "Mt. Sanpo", "ele": 1479.0, "lat": 32.374712, "lon": 131.1954928}, {"name": "場照山", "name_en": "Mt. Bateru", "ele": 660.8, "lat": 32.8232252, "lon": 131.8554344}, {"name": "椿山", "name_en": null, "ele": null, "lat": 32.9853688, "lon": 131.800275}, {"name": "赤石山", "name_en": null, "ele": null, "lat": 32.7902027, "lon": 131.902494}, {"name": "兜巾岳", "name_en": "Mt. Tokkin", "ele": null, "lat": 32.7786681, "lon": 131.4825319}, {"name": "オオノコ", "name_en": null, "ele": null, "lat": 32.7815366, "lon": 131.5079807}, {"name": "長島山", "name_en": "Mt. Nagashima", "ele": 79.7, "lat": 32.9675553, "lon": 131.9128525}, {"name": "濃霞山", "name_en": "Mt. Noka", "ele": 61.0, "lat": 32.9729919, "lon": 131.9089901}, {"name": "権現山", "name_en": null, "ele": 491.1, "lat": 32.925649, "lon": 132.4857134}, {"name": "千本山", "name_en": "Mt. Senbon", "ele": 906.0, "lat": 32.2058112, "lon": 131.0842001}, {"name": "牧良山", "name_en": "Mt. Makira", "ele": 990.6, "lat": 32.2863118, "lon": 131.0511124}, {"name": "赤鬚山", "name_en": "Mt. Akahige", "ele": 951.4, "lat": 32.2432143, "lon": 131.2339961}, {"name": "烏帽子岳", "name_en": "Mt. Eboshidake", "ele": 1125.6, "lat": 32.2750688, "lon": 131.2265825}, {"name": "天包山", "name_en": "Mt. Amatsutsumi", "ele": 1188.8, "lat": 32.2532409, "lon": 131.1818218}, {"name": "掃部岳", "name_en": "Mt. Kamon", "ele": 1223.4, "lat": 32.1337027, "lon": 131.192497}, {"name": "不動冴山", "name_en": "Mt. Fudozae", "ele": 1259.9, "lat": 32.5196683, "lon": 131.1596775}, {"name": "五勇山", "name_en": "Mt. Goyuzan", "ele": 1662.0, "lat": 32.5210796, "lon": 131.0258889}, {"name": "石堂屋", "name_en": "Mt. Ishidoya", "ele": 1335.9, "lat": 32.5096984, "lon": 131.0536766}, {"name": "高隈山", "name_en": "Mt. Takakuma", "ele": 956.6, "lat": 32.5245398, "lon": 131.2829947}, {"name": "清水岳", "name_en": "Mt. Shimizu", "ele": 1204.5, "lat": 32.4589269, "lon": 131.2989378}, {"name": "龍岩山", "name_en": "Mt. Tatsuiwa", "ele": 1318.0, "lat": 32.4336843, "lon": 131.2090194}, {"name": "尾崎山", "name_en": "Mt. Ozaki", "ele": 1438.2, "lat": 32.4230165, "lon": 131.1889672}, {"name": "青鈴山", "name_en": "Mt. Aosuzu", "ele": 1238.8, "lat": 32.4414172, "lon": 131.1855554}, {"name": "石仁田山", "name_en": "Mt. Ishinita", "ele": 1359.0, "lat": 32.411161, "lon": 131.1483693}, {"name": "飯干山", "name_en": "Mt. Iiboshi", "ele": 1162.0, "lat": 32.4008711, "lon": 131.1190152}, {"name": "高塚山", "name_en": "Mt. Takatsuka", "ele": 1289.8, "lat": 32.3967493, "lon": 131.139003}, {"name": "広野山", "name_en": "Mt. Hirono", "ele": 1272.0, "lat": 32.370547, "lon": 131.1616194}, {"name": "馬口岳", "name_en": "Mt. Bakuchi", "ele": 1435.0, "lat": 32.3848904, "lon": 131.0862279}, {"name": "樋口山", "name_en": "Mt. Hikuchi", "ele": 1434.3, "lat": 32.3241147, "lon": 131.176326}, {"name": "萱原山", "name_en": "Mt. Kayahara", "ele": 1364.0, "lat": 32.3455425, "lon": 131.1305594}, {"name": "木浦山", "name_en": "Mt. Kiura", "ele": 1441.0, "lat": 32.5579071, "lon": 131.1309001}, {"name": "揺岳", "name_en": "Mt. Yurugi", "ele": 1335.4, "lat": 32.6200253, "lon": 131.1931622}, {"name": "大仁田山", "name_en": "Mt. Onita", "ele": 1315.6, "lat": 32.6145061, "lon": 131.2527314}, {"name": "赤土岸山", "name_en": "Mt. Akadogishi", "ele": 1169.4, "lat": 32.6421846, "lon": 131.255883}, {"name": "中登岳", "name_en": "Mt. Nakato", "ele": 949.5, "lat": 32.6676666, "lon": 131.2304878}, {"name": "二上山", "name_en": "Mt. Futagami", "ele": 1082.0, "lat": 32.6769778, "lon": 131.2529969}, {"name": "高屋山", "name_en": "Mt. Takaya", "ele": null, "lat": 32.6946267, "lon": 131.2684169}, {"name": "桝形山", "name_en": "Mt. Masugata", "ele": 982.3, "lat": 32.7051584, "lon": 131.224426}, {"name": "愛宕山", "name_en": "Mt. Atago", "ele": 799.4, "lat": 32.7203014, "lon": 131.2521601}, {"name": "烏岳", "name_en": "Mt. Karasu", "ele": 671.7, "lat": 32.7357578, "lon": 131.2370968}, {"name": "鳥の霧山", "name_en": "Mt. Torinokiri", "ele": 1152.5, "lat": 32.5479346, "lon": 131.1811566}, {"name": "黒岳", "name_en": "Mt. Kurodake", "ele": 1455.2, "lat": 32.5617886, "lon": 131.2190616}, {"name": "星の久保", "name_en": "Mt. Hoshinokubo", "ele": 982.6, "lat": 32.5768158, "lon": 131.3010514}, {"name": "国見岳", "name_en": "Mt. Kunimi", "ele": 1087.9, "lat": 32.8046085, "lon": 131.2554002}, {"name": "松が鼻", "name_en": "Mt. Matsugahana", "ele": 1165.3, "lat": 32.8188669, "lon": 131.3096076}, {"name": "赤川浦岳", "name_en": "Mt. Akagoura", "ele": 1232.0, "lat": 32.7907741, "lon": 131.2898183}, {"name": "玄武山", "name_en": "Mt. Genbu", "ele": 974.3, "lat": 32.7759001, "lon": 131.290859}, {"name": "愛宕山", "name_en": "Mt. Atago", "ele": 1035.5, "lat": 32.7740102, "lon": 131.3192126}, {"name": "尾野山", "name_en": "Mt. Ono", "ele": null, "lat": 32.7532552, "lon": 131.3140225}, {"name": "四恩岳", "name_en": "Mt. Shion", "ele": 675.9, "lat": 32.7516851, "lon": 131.2880158}, {"name": "迫の岳", "name_en": "Mt. Sakonodake", "ele": 498.0, "lat": 32.7333752, "lon": 131.2895501}, {"name": "烏岳", "name_en": "Mt. Karasu", "ele": 514.8, "lat": 32.7238442, "lon": 131.2989271}, {"name": "焼山寺山", "name_en": "Mt. Shozanji", "ele": null, "lat": 32.7359292, "lon": 131.3316876}, {"name": "天香山", "name_en": "Mt. Amanokaguyama", "ele": 605.0, "lat": 32.7232665, "lon": 131.3316607}, {"name": "猿岳", "name_en": "Mt. Sarutake", "ele": 847.0, "lat": 32.7145018, "lon": 131.3667869}, {"name": "戸川岳", "name_en": "Mt. Togawa", "ele": 954.8, "lat": 32.6961932, "lon": 131.387912}, {"name": "上野岳", "name_en": "Mt. Kamino", "ele": 755.8, "lat": 32.6980306, "lon": 131.3579249}, {"name": "大平岳", "name_en": "Mt. Ohira", "ele": 710.3, "lat": 32.6978681, "lon": 131.3341498}, {"name": "鞍掛山", "name_en": "Mt. Kurakake", "ele": 742.0, "lat": 32.6861707, "lon": 131.2967598}, {"name": "烏帽子岳", "name_en": "Mt. Eboshi", "ele": 808.8, "lat": 32.6771133, "lon": 131.3140225}, {"name": "城山", "name_en": "Mt. Joyama", "ele": 731.0, "lat": 32.7464605, "lon": 131.3655639}, {"name": "稗畑山", "name_en": "Mt. Hiebata", "ele": 853.2, "lat": 32.2133639, "lon": 131.3600063}, {"name": "大瀬内山", "name_en": "Mt. Oseuchi", "ele": 978.5, "lat": 32.2379647, "lon": 131.3639599}, {"name": "上面木山", "name_en": "Mt. Jomegi", "ele": 897.0, "lat": 32.2374837, "lon": 131.4430743}, {"name": "春山", "name_en": "Mt. Haruyama", "ele": 1162.3, "lat": 32.2597894, "lon": 131.4327827}, {"name": "黒原山", "name_en": "Mt. Kurobaru", "ele": 1217.0, "lat": 32.2727148, "lon": 131.4310259}, {"name": "角崎山", "name_en": "Mt. Tsunosaki", "ele": 1070.9, "lat": 32.3024233, "lon": 131.4604282}, {"name": "神陰山", "name_en": "Mt. Kamikage", "ele": 1271.9, "lat": 32.3133728, "lon": 131.4467114}, {"name": "万吉山", "name_en": "Mt. Mankichi", "ele": 1318.0, "lat": 32.306037, "lon": 131.4254495}, {"name": "杖木山", "name_en": "Mt. Tsueki", "ele": 1011.0, "lat": 32.2751754, "lon": 131.3527}, {"name": "高塚山", "name_en": "Mt. Takatsuka", "ele": 987.1, "lat": 32.3047629, "lon": 131.321876}, {"name": "石峠山", "name_en": null, "ele": 621.8, "lat": 32.9512261, "lon": 131.6808236}, {"name": "大山", "name_en": null, "ele": 575.7, "lat": 32.9278592, "lon": 131.6491651}, {"name": "楯ヶ城山", "name_en": "Mt. Tategajo", "ele": null, "lat": 32.9681842, "lon": 131.7267321}, {"name": "冠岳", "name_en": "Mt. Kammuri", "ele": null, "lat": 32.967268, "lon": 131.7581031}, {"name": "東傾", "name_en": null, "ele": null, "lat": 32.8506509, "lon": 131.4943211}, {"name": "城山", "name_en": "Shiro-yama", "ele": 144.0, "lat": 32.9590092, "lon": 131.8888336}, {"name": "雌岳", "name_en": null, "ele": null, "lat": 32.6295422, "lon": 131.5880097}, {"name": "北岳", "name_en": null, "ele": null, "lat": 32.6285673, "lon": 131.5708721}, {"name": "三方山", "name_en": null, "ele": null, "lat": 32.5879393, "lon": 131.0542853}, {"name": "市房山", "name_en": "Mt. Ichifusa", "ele": 1720.5, "lat": 32.3117006, "lon": 131.1010997}, {"name": "津之峰", "name_en": null, "ele": 81.0, "lat": 31.5848446, "lon": 131.4059321}, {"name": "第2高畑山", "name_en": null, "ele": 382.0, "lat": 31.4892191, "lon": 131.2138554}, {"name": "乙野山", "name_en": "Mt. Otono", "ele": 1100.9, "lat": 32.7828323, "lon": 131.4094555}, {"name": "笠松山", "name_en": "Mt. Kasamatsu", "ele": 1521.9, "lat": 32.8259421, "lon": 131.4360738}, {"name": "たかはた山", "name_en": "Mt. Takahata", "ele": 1207.1, "lat": 32.8178096, "lon": 131.460514}, {"name": "とやんたき", "name_en": "Mt. Toyantaki", "ele": 929.0, "lat": 32.813698, "lon": 131.4849973}, {"name": "洞岳", "name_en": "Mt. Dodake", "ele": 1242.0, "lat": 32.7715791, "lon": 131.4615333}, {"name": "天神山", "name_en": null, "ele": null, "lat": 31.9036888, "lon": 131.4106754}, {"name": "西俣山", "name_en": null, "ele": 917.4, "lat": 32.1263452, "lon": 131.0762903}, {"name": "大森岳", "name_en": null, "ele": 1108.7, "lat": 32.0758881, "lon": 131.1549039}, {"name": "切剥", "name_en": "Kirihagi", "ele": 1573.0, "lat": 32.5969464, "lon": 131.0543171}, {"name": "矢筈岳", "name_en": "Yahazudake", "ele": 1113.2, "lat": 32.6394607, "lon": 131.0559041}, {"name": "遠見山", "name_en": "Toomiyama", "ele": 1268.0, "lat": 32.6281029, "lon": 131.0544136}, {"name": "高岳", "name_en": "Takadake", "ele": 1563.6, "lat": 32.5805516, "lon": 131.0429931}, {"name": "清栄山", "name_en": "Seieizan", "ele": 1006.3, "lat": 32.8257295, "lon": 131.1498673}, {"name": "稲積山", "name_en": "Inazumiyama", "ele": 1269.0, "lat": 32.6110399, "lon": 131.0724742}, {"name": "Mount Sara - 皿山", "name_en": null, "ele": 1303.0, "lat": 32.8698628, "lon": 131.0823999}, {"name": "城山", "name_en": "Shiroyama", "ele": 839.3, "lat": 32.7973639, "lon": 131.0452066}, {"name": "城が岳", "name_en": "Jogadake", "ele": 799.0, "lat": 32.8020067, "lon": 131.0987817}, {"name": "冠岳", "name_en": "Mount Kanmuri", "ele": 438.0, "lat": 32.3851511, "lon": 131.5378445}, {"name": "斟鉢山", "name_en": "Mount Kumpachi", "ele": 500.5, "lat": 31.7969303, "lon": 131.4131042}, {"name": "青井岳", "name_en": "Mount Aoi", "ele": 563.3, "lat": 31.8511641, "lon": 131.2101429}, {"name": "矢筈岳", "name_en": "Mount Yahazu", "ele": 666.0, "lat": 32.6530379, "lon": 131.4351206}, {"name": "尖山", "name_en": "Mount Togari", "ele": 716.3, "lat": 32.4122281, "lon": 131.408024}, {"name": "北岳", "name_en": "Mt. Kitadake", "ele": 747.1, "lat": 31.2494477, "lon": 131.0052494}, {"name": "Mitakeyama - 見岳山", "name_en": null, "ele": 632.6, "lat": 32.6885313, "lon": 131.0303743}, {"name": "吉作坊主", "name_en": null, "ele": null, "lat": 32.8443045, "lon": 131.4654648}, {"name": "扇山", "name_en": null, "ele": 295.3, "lat": 31.372783, "lon": 131.3322529}, {"name": "男鈴山", "name_en": null, "ele": 783.4, "lat": 31.6127369, "lon": 131.2581415}, {"name": "笠祇岳", "name_en": null, "ele": 444.1, "lat": 31.502194, "lon": 131.1725376}, {"name": "子持山", "name_en": null, "ele": 361.0, "lat": 30.4805087, "lon": 140.3037893}, {"name": "旭山", "name_en": null, "ele": 387.0, "lat": 30.4845677, "lon": 140.3084671}, {"name": "月夜山", "name_en": null, "ele": 372.0, "lat": 30.4774389, "lon": 140.2984142}, {"name": "硫黄山", "name_en": null, "ele": 394.0, "lat": 30.483828, "lon": 140.3029739}, {"name": "大人ヶ凸部", "name_en": "Mt. Ojingatonbu", "ele": 336.0, "lat": 32.4517491, "lon": 139.7764934}, {"name": "丸山", "name_en": "Mt. Maruyama", "ele": 211.0, "lat": 32.4532028, "lon": 139.7665008}, {"name": "大凸部", "name_en": "Mt. Otoppu", "ele": 423.0, "lat": 32.4584276, "lon": 139.7593082}, {"name": "남산", "name_en": "Namsan Mountain", "ele": 267.0, "lat": 37.5524374, "lon": 126.988433}, {"name": "천왕봉", "name_en": "Cheonwangbong", "ele": 1918.0, "lat": 35.3369536, "lon": 127.7305907}, {"name": "성산일출봉", "name_en": "Seongsan Ilchulbong Peak", "ele": 182.0, "lat": 33.4588891, "lon": 126.9408178}, {"name": "큰짝산", "name_en": null, "ele": 98.0, "lat": 37.6141828, "lon": 126.6654997}, {"name": "관음봉", "name_en": "Gwaneumbong", "ele": 771.0, "lat": 36.3520094, "lon": 127.2003502}, {"name": "삼불봉", "name_en": "Sambulbong", "ele": 780.0, "lat": 36.3614394, "lon": 127.2103158}, {"name": "연천봉", "name_en": "Yeoncheonbong", "ele": 745.0, "lat": 36.3500275, "lon": 127.1915418}, {"name": "뱃재", "name_en": null, "ele": null, "lat": 37.2747192, "lon": 128.9305804}, {"name": "조곡리고개", "name_en": null, "ele": null, "lat": 36.8712555, "lon": 127.9117658}, {"name": "팔봉국기봉", "name_en": null, "ele": null, "lat": 37.4346797, "lon": 126.961638}, {"name": "수암봉", "name_en": "Suambong", "ele": 398.0, "lat": 37.3669108, "lon": 126.8923697}, {"name": "꼬깔봉", "name_en": "Ggoggalbong", "ele": 449.0, "lat": 37.3581555, "lon": 126.8978911}, {"name": "수리봉", "name_en": "Suribong", "ele": 428.0, "lat": 37.3586259, "lon": 126.9054949}, {"name": "슬기봉", "name_en": "Seulgibong", "ele": 419.0, "lat": 37.3599494, "lon": 126.9072115}, {"name": "너구리산", "name_en": "Neogurisan", "ele": 309.0, "lat": 37.3478272, "lon": 126.8878448}, {"name": "319봉", "name_en": "319 Bong", "ele": 320.0, "lat": 37.3757206, "lon": 126.8952038}, {"name": "매봉", "name_en": "Gwacheonmaebong", "ele": 369.0, "lat": 37.4139375, "lon": 127.0134044}, {"name": "국사봉", "name_en": "Guksabong", "ele": 540.0, "lat": 37.4040898, "lon": 127.043771}, {"name": "이수봉", "name_en": "Isubong Peak", "ele": 558.0, "lat": 37.4136483, "lon": 127.0466807}, {"name": "매봉", "name_en": "Maebong", "ele": 582.0, "lat": 37.4280177, "lon": 127.0436423}, {"name": "옥녀봉", "name_en": "Ongnyeobong", "ele": 370.0, "lat": 37.4391855, "lon": 127.035797}, {"name": "학바위 국기봉", "name_en": "Gukgibong", "ele": 521.0, "lat": 37.4398679, "lon": 126.9587485}, {"name": "학우봉", "name_en": "Hagubong", "ele": 344.3, "lat": 37.4310781, "lon": 126.9296303}, {"name": "관악산", "name_en": "Gwanaksan Mountain", "ele": 632.0, "lat": 37.4451398, "lon": 126.9642379}, {"name": "형제봉1", "name_en": "Hyeongjebong 1", "ele": 452.0, "lat": 37.6179641, "lon": 126.9820118}, {"name": "형제봉", "name_en": "Hyeongjebong", "ele": 458.0, "lat": 37.61981, "lon": 126.9825444}, {"name": "축령산", "name_en": "Chungnyeongsan", "ele": 879.0, "lat": 37.7527629, "lon": 127.333886}, {"name": "덕유산 향적봉", "name_en": "Deokyusan Hyangjeokbong", "ele": 1614.0, "lat": 35.8600127, "lon": 127.7465185}, {"name": "설천봉", "name_en": "Seolcheonbong", "ele": 1522.0, "lat": 35.8655764, "lon": 127.7435117}, {"name": "서봉", "name_en": "Deokyuseobong", "ele": 1498.3, "lat": 35.7715427, "lon": 127.6692081}, {"name": "할미봉", "name_en": "Halmibong", "ele": 1024.0, "lat": 35.7354405, "lon": 127.6611743}, {"name": "고리봉", "name_en": "Goribong", "ele": 1309.0, "lat": 35.3701857, "lon": 127.5253701}, {"name": "세걸산", "name_en": "Segeolsan", "ele": 1222.0, "lat": 35.381684, "lon": 127.5522866}, {"name": "바래봉", "name_en": "Baraebong", "ele": 1187.0, "lat": 35.4216041, "lon": 127.5761046}, {"name": "덕두산", "name_en": "Deokdubong", "ele": 1153.0, "lat": 35.4311509, "lon": 127.5835118}, {"name": "감투봉", "name_en": "Gamtubong", "ele": 753.0, "lat": 35.326858, "lon": 127.8522906}, {"name": "이방산", "name_en": "Ibangsan", "ele": 718.0, "lat": 35.3063797, "lon": 127.849235}, {"name": "종석대", "name_en": "Jongseokdae", "ele": 1354.4, "lat": 35.2959002, "lon": 127.5139504}, {"name": "노루목", "name_en": "Norumok", "ele": 1484.0, "lat": 35.3099908, "lon": 127.5703585}, {"name": "삼도봉", "name_en": "Samdobong", "ele": 1506.0, "lat": 35.3087501, "lon": 127.5774895}, {"name": "토끼봉", "name_en": "Toggibong", "ele": 1534.0, "lat": 35.3136192, "lon": 127.5957351}, {"name": "1474봉", "name_en": "1474 Bong", "ele": 1477.0, "lat": 35.318666, "lon": 127.6051879}, {"name": "삼각고지", "name_en": "Samgakgoji", "ele": 1495.0, "lat": 35.3317879, "lon": 127.6221507}, {"name": "형제봉", "name_en": "Hyeongjebong", "ele": 1405.0, "lat": 35.3270573, "lon": 127.6306463}, {"name": "칠선봉", "name_en": "Chilseonbong", "ele": 1560.0, "lat": 35.3215335, "lon": 127.6755972}, {"name": "영신봉", "name_en": "Yeongsinbong", "ele": 1668.0, "lat": 35.3194225, "lon": 127.6888423}, {"name": "촛대봉", "name_en": "Chotdaebong", "ele": 1715.0, "lat": 35.3151944, "lon": 127.7003829}, {"name": "연하봉", "name_en": "Yeonhabong", "ele": 1713.0, "lat": 35.3282503, "lon": 127.711152}, {"name": "제석봉", "name_en": "Jeseokbong", "ele": 1814.0, "lat": 35.33543, "lon": 127.72105}, {"name": "반야봉", "name_en": "Banyabong", "ele": 1732.0, "lat": 35.3163058, "lon": 127.5694995}, {"name": "제1연화봉", "name_en": "Je 1 Yeonhwabong", "ele": 1394.0, "lat": 36.9474282, "lon": 128.4627854}, {"name": "소백산 비로봉", "name_en": "Sobaeksan", "ele": 1439.5, "lat": 36.9574928, "lon": 128.4848972}, {"name": "도솔봉", "name_en": "Dosolbong", "ele": 1320.0, "lat": 36.8682376, "lon": 128.4424826}, {"name": "우담산(발화산)", "name_en": "Woodamsan (peak)", "ele": 427.91, "lat": 37.379468, "lon": 127.0312365}, {"name": "바라산", "name_en": "Barasan", "ele": 428.0, "lat": 37.36872, "lon": 127.0270998}, {"name": "백운산", "name_en": "Baegunsan", "ele": 567.0, "lat": 37.3535546, "lon": 127.0170061}, {"name": "광교산", "name_en": "Gwanggyosan", "ele": 582.0, "lat": 37.3449403, "lon": 127.0344434}, {"name": "형제봉", "name_en": "Hyeongjebong", "ele": 443.0, "lat": 37.3282926, "lon": 127.0380775}, {"name": "모락산", "name_en": "Moraksan", "ele": 385.0, "lat": 37.3705094, "lon": 126.9786473}, {"name": "구름산", "name_en": "Gureumsan", "ele": 251.99, "lat": 37.4406831, "lon": 126.8661594}, {"name": "가학산", "name_en": "Gahaksan", "ele": 220.0, "lat": 37.4279921, "lon": 126.8673018}, {"name": "검단산", "name_en": "Geomdansan", "ele": 658.0, "lat": 37.5176552, "lon": 127.2493539}, {"name": "두리봉", "name_en": "Gochubong", "ele": 579.0, "lat": 37.5032309, "lon": 127.2532651}, {"name": "용마산", "name_en": "Yongmasan", "ele": 605.0, "lat": 37.4910537, "lon": 127.2591944}, {"name": "노적산", "name_en": "Nojeoksan", "ele": 376.96, "lat": 37.4636905, "lon": 127.2380973}, {"name": "청량산", "name_en": "Cheongryangsan Mountain", "ele": 497.0, "lat": 37.4800005, "lon": 127.176062}, {"name": "망덕산(왕기봉)", "name_en": "Wanggibong", "ele": 480.0, "lat": 37.4450833, "lon": 127.1956408}, {"name": "금수봉", "name_en": "Geumsubong", "ele": 532.0, "lat": 36.328917, "lon": 127.280978}, {"name": "도덕봉", "name_en": "Dodeokbong", "ele": 534.0, "lat": 36.3490253, "lon": 127.277865}, {"name": "매봉", "name_en": "Maebong", "ele": 616.0859, "lat": 34.7671693, "lon": 126.7126259}, {"name": "구정봉", "name_en": "Gujeongbong", "ele": 706.7, "lat": 34.7616529, "lon": 126.6939625}, {"name": "두산봉", "name_en": "Dusanbong", "ele": 101.06, "lat": 33.4813261, "lon": 126.8835846}, {"name": "식산봉", "name_en": "Siksan-bong", "ele": 11.9, "lat": 33.4656984, "lon": 126.9198882}, {"name": "통오름", "name_en": "Tong-oreum", "ele": 141.0, "lat": 33.3921885, "lon": 126.8531147}, {"name": "독자봉", "name_en": "Dokjabong", "ele": 150.0, "lat": 33.3880033, "lon": 126.8535524}, {"name": "토산망", "name_en": "Tosanmang", "ele": 152.97, "lat": 33.3216825, "lon": 126.7753058}, {"name": "검몰래", "name_en": "Geommollae", "ele": 13.1, "lat": 33.4960273, "lon": 126.9654054}, {"name": "성두산", "name_en": "Seongdusan", "ele": 94.9, "lat": 36.3716525, "lon": 127.3702306}, {"name": "매봉산", "name_en": "Maebongsan", "ele": 144.9, "lat": 36.3815323, "lon": 127.3718408}, {"name": "基山", "name_en": "Mt. Kizan", "ele": 404.3, "lat": 33.4427937, "lon": 130.5099582}, {"name": "예봉산", "name_en": "Yebongsan", "ele": 683.0, "lat": 37.5591522, "lon": 127.2611318}, {"name": "경주남산(금오봉)", "name_en": "Geumobong", "ele": 468.0, "lat": 35.7887876, "lon": 129.2228175}, {"name": "명선봉", "name_en": "Myeongseonbong", "ele": 1589.0, "lat": 35.3280357, "lon": 127.6127152}, {"name": "개천문", "name_en": "Gaecheonmun", "ele": 1676.0, "lat": 35.3330606, "lon": 127.7328219}, {"name": "통천문", "name_en": "Tongcheonmun", "ele": 1823.0, "lat": 35.3365305, "lon": 127.7274651}, {"name": "1542봉", "name_en": "1542 Bong", "ele": 1551.0, "lat": 35.3247393, "lon": 127.6076089}, {"name": "비목", "name_en": "Bimok", "ele": 1384.3, "lat": 35.295243, "lon": 127.5408725}, {"name": "1435봉", "name_en": "1435 bong", "ele": 1442.0, "lat": 35.327492, "lon": 127.6501936},