{"stations": {"6560": {"name": "Canary Wharf EL", "asc": "CWXr", "lat": 51.506203, "lon": -0.018834, "naptan_ids": ["910GCANWHRF"], "lines": ["EZL"]}, "6561": {"name": "Custom House EL", "asc": "CUSr", "lat": 51.509769, "lon": 0.02673, "naptan_ids": ["910GCUSTMHS"], "lines": ["EZL"]}, "6562": {"name": "Woolwich EL", "asc": "WWCr", "lat": 51.492168, "lon": 0.070593, "naptan_ids": ["910GWOLWXR"], "lines": ["EZL"]}, "500": {"name": "Acton Town", "asc": "ACTu", "lat": 51.503057, "lon": -0.280462, "naptan_ids": ["940GZZLUACT"], "lines": ["DIS", "PIC"]}, "501": {"name": "Barbican", "asc": "BARu", "lat": 51.520275, "lon": -0.097993, "naptan_ids": ["940GZZLUBBN"], "lines": ["CIR", "HAM", "MET"]}, "502": {"name": "Aldgate", "asc": "ALDu", "lat": 51.514246, "lon": -0.075689, "naptan_ids": ["940GZZLUALD"], "lines": ["CIR", "MET"]}, "503": {"name": "Aldgate East", "asc": "ALEu", "lat": 51.515037, "lon": -0.072384, "naptan_ids": ["940GZZLUADE"], "lines": ["DIS", "HAM"]}, "504": {"name": "Stratford International DLR", "asc": "STId", "lat": 51.545265, "lon": -0.009638, "naptan_ids": ["940GZZDLSIT"], "lines": ["DLR"]}, "505": {"name": "Alperton", "asc": "ALPu", "lat": 51.540627, "lon": -0.29961, "naptan_ids": ["940GZZLUALP"], "lines": ["PIC"]}, "506": {"name": "Amersham", "asc": "AMEu", "lat": 51.674126, "lon": -0.607714, "naptan_ids": ["940GZZLUAMS"], "lines": ["MET"]}, "507": {"name": "Angel", "asc": "ANGu", "lat": 51.531788, "lon": -0.105919, "naptan_ids": ["940GZZLUAGL"], "lines": ["NOR"]}, "508": {"name": "Archway", "asc": "ARCu", "lat": 51.565478, "lon": -0.134819, "naptan_ids": ["940GZZLUACY"], "lines": ["NOR"]}, "509": {"name": "Arnos Grove", "asc": "AGRu", "lat": 51.616446, "lon": -0.133062, "naptan_ids": ["940GZZLUASG"], "lines": ["PIC"]}, "510": {"name": "Arsenal", "asc": "ARLu", "lat": 51.558655, "lon": -0.107457, "naptan_ids": ["940GZZLUASL"], "lines": ["PIC"]}, "511": {"name": "Baker Street", "asc": "BSTu", "lat": 51.522883, "lon": -0.15713, "naptan_ids": ["940GZZLUBST"], "lines": ["BAK", "CIR", "HAM", "JUB", "MET"]}, "512": {"name": "Balham LU", "asc": "BALu", "lat": 51.443288, "lon": -0.152997, "naptan_ids": ["940GZZLUBLM"], "lines": ["NOR"]}, "513": {"name": "Bank and Monument", "asc": "BNKu", "lat": 51.512355, "lon": -0.088177, "naptan_ids": ["940GZZDLBNK", "940GZZLUBNK", "940GZZLUMMT"], "lines": ["CEN", "CIR", "DIS", "DLR", "NOR", "WAC"]}, "514": {"name": "Barking", "asc": "BKGu", "lat": 51.539408, "lon": 0.080978, "naptan_ids": ["910GBARKING", "940GZZLUBKG"], "lines": ["DIS", "GOB", "HAM"]}, "515": {"name": "Barkingside", "asc": "BDEu", "lat": 51.585689, "lon": 0.088585, "naptan_ids": ["940GZZLUBKE"], "lines": ["CEN"]}, "516": {"name": "Barons Court", "asc": "BCTu", "lat": 51.490311, "lon": -0.213427, "naptan_ids": ["940GZZLUBSC"], "lines": ["DIS", "PIC"]}, "517": {"name": "Bayswater", "asc": "BAYu", "lat": 51.512284, "lon": -0.187938, "naptan_ids": ["940GZZLUBWT"], "lines": ["CIR", "DIS"]}, "518": {"name": "Becontree", "asc": "BECu", "lat": 51.540331, "lon": 0.127016, "naptan_ids": ["940GZZLUBEC"], "lines": ["DIS"]}, "519": {"name": "Belsize Park", "asc": "BPKu", "lat": 51.550311, "lon": -0.164648, "naptan_ids": ["940GZZLUBZP"], "lines": ["NOR"]}, "520": {"name": "Bethnal Green LU", "asc": "BNGu", "lat": 51.527222, "lon": -0.055506, "naptan_ids": ["940GZZLUBLG"], "lines": ["CEN"]}, "521": {"name": "Blackfriars LU", "asc": "BLFu", "lat": 51.511581, "lon": -0.103659, "naptan_ids": ["940GZZLUBKF"], "lines": ["CIR", "DIS"]}, "522": {"name": "Blackhorse Road", "asc": "BHRu", "lat": 51.586762, "lon": -0.041193, "naptan_ids": ["910GBLCHSRD", "940GZZLUBLR"], "lines": ["GOB", "VIC"]}, "523": {"name": "King George V", "asc": "KGVd", "lat": 51.502003, "lon": 0.062624, "naptan_ids": ["940GZZDLKGV"], "lines": ["DLR"]}, "524": {"name": "Bond Street", "asc": "BDSu", "lat": 51.513997, "lon": -0.14962, "naptan_ids": ["910GBONDST", "940GZZLUBND"], "lines": ["CEN", "EZL", "JUB"]}, "525": {"name": "Borough", "asc": "BORu", "lat": 51.501199, "lon": -0.09337, "naptan_ids": ["940GZZLUBOR"], "lines": ["NOR"]}, "526": {"name": "Boston Manor", "asc": "BOSu", "lat": 51.495635, "lon": -0.324939, "naptan_ids": ["940GZZLUBOS"], "lines": ["PIC"]}, "527": {"name": "Bounds Green", "asc": "BGRu", "lat": 51.607034, "lon": -0.124235, "naptan_ids": ["940GZZLUBDS"], "lines": ["PIC"]}, "528": {"name": "Bow Road", "asc": "BWRu", "lat": 51.52694, "lon": -0.025128, "naptan_ids": ["940GZZLUBWR"], "lines": ["DIS", "HAM"]}, "529": {"name": "Brent Cross", "asc": "BTXu", "lat": 51.57665, "lon": -0.213622, "naptan_ids": ["940GZZLUBTX"], "lines": ["NOR"]}, "530": {"name": "Bromley-by-Bow", "asc": "BBBu", "lat": 51.524839, "lon": -0.011538, "naptan_ids": ["940GZZLUBBB"], "lines": ["DIS", "HAM"]}, "531": {"name": "Buckhurst Hill", "asc": "BHLu", "lat": 51.626605, "lon": 0.046757, "naptan_ids": ["940GZZLUBKH"], "lines": ["CEN"]}, "532": {"name": "Burnt Oak", "asc": "BURu", "lat": 51.602774, "lon": -0.264048, "naptan_ids": ["940GZZLUBTK"], "lines": ["NOR"]}, "533": {"name": "London City Airport", "asc": "LCAd", "lat": 51.503416, "lon": 0.048739, "naptan_ids": ["940GZZDLLCA"], "lines": ["DLR"]}, "534": {"name": "Caledonian Road", "asc": "CRDu", "lat": 51.548519, "lon": -0.118493, "naptan_ids": ["940GZZLUCAR"], "lines": ["PIC"]}, "535": {"name": "Camden Town", "asc": "CTNu", "lat": 51.539292, "lon": -0.14274, "naptan_ids": ["940GZZLUCTN"], "lines": ["NOR"]}, "536": {"name": "Cannon Street LU", "asc": "CSTu", "lat": 51.51151, "lon": -0.090432, "naptan_ids": ["940GZZLUCST"], "lines": ["CIR", "DIS"]}, "537": {"name": "Canons Park", "asc": "CPKu", "lat": 51.607701, "lon": -0.294693, "naptan_ids": ["940GZZLUCPK"], "lines": ["JUB"]}, "538": {"name": "Pontoon Dock", "asc": "PDKd", "lat": 51.502212, "lon": 0.032115, "naptan_ids": ["940GZZDLPDK"], "lines": ["DLR"]}, "539": {"name": "Chalfont & Latimer", "asc": "CLFu", "lat": 51.667985, "lon": -0.560689, "naptan_ids": ["940GZZLUCAL"], "lines": ["MET"]}, "540": {"name": "Chalk Farm", "asc": "CHFu", "lat": 51.544118, "lon": -0.153388, "naptan_ids": ["940GZZLUCFM"], "lines": ["NOR"]}, "541": {"name": "Chancery Lane", "asc": "CYLu", "lat": 51.518247, "lon": -0.111583, "naptan_ids": ["940GZZLUCHL"], "lines": ["CEN"]}, "542": {"name": "Embankment", "asc": "EMBu", "lat": 51.507058, "lon": -0.122666, "naptan_ids": ["940GZZLUEMB"], "lines": ["BAK", "CIR", "DIS", "NOR"]}, "543": {"name": "Chesham", "asc": "CHMu", "lat": 51.705208, "lon": -0.611247, "naptan_ids": ["940GZZLUCSM"], "lines": ["MET"]}, "544": {"name": "Chigwell", "asc": "CHGu", "lat": 51.617916, "lon": 0.075041, "naptan_ids": ["940GZZLUCWL"], "lines": ["CEN"]}, "545": {"name": "Chiswick Park", "asc": "CHPu", "lat": 51.494627, "lon": -0.267972, "naptan_ids": ["940GZZLUCWP"], "lines": ["DIS"]}, "546": {"name": "Chorleywood", "asc": "CWDu", "lat": 51.654358, "lon": -0.518461, "naptan_ids": ["940GZZLUCYD"], "lines": ["MET"]}, "547": {"name": "Clapham Common", "asc": "CPCu", "lat": 51.461742, "lon": -0.138317, "naptan_ids": ["940GZZLUCPC"], "lines": ["NOR"]}, "548": {"name": "Clapham North", "asc": "CPNu", "lat": 51.465135, "lon": -0.130016, "naptan_ids": ["940GZZLUCPN"], "lines": ["NOR"]}, "549": {"name": "Clapham South", "asc": "CPSu", "lat": 51.452654, "lon": -0.147582, "naptan_ids": ["940GZZLUCPS"], "lines": ["NOR"]}, "550": {"name": "Cockfosters", "asc": "CFSu", "lat": 51.65152, "lon": -0.149171, "naptan_ids": ["940GZZLUCKS"], "lines": ["PIC"]}, "551": {"name": "Colindale", "asc": "COLu", "lat": 51.595424, "lon": -0.249919, "naptan_ids": ["940GZZLUCND"], "lines": ["NOR"]}, "552": {"name": "Colliers Wood", "asc": "CLWu", "lat": 51.41816, "lon": -0.178086, "naptan_ids": ["940GZZLUCSD"], "lines": ["NOR"]}, "553": {"name": "Covent Garden", "asc": "COVu", "lat": 51.513093, "lon": -0.124436, "naptan_ids": ["940GZZLUCGN"], "lines": ["PIC"]}, "554": {"name": "Croxley", "asc": "CRXu", "lat": 51.647044, "lon": -0.441718, "naptan_ids": ["940GZZLUCXY"], "lines": ["MET"]}, "555": {"name": "Dagenham East", "asc": "DGEu", "lat": 51.544096, "lon": 0.166017, "naptan_ids": ["940GZZLUDGE"], "lines": ["DIS"]}, "556": {"name": "Dagenham Heathway", "asc": "DGHu", "lat": 51.541639, "lon": 0.147527, "naptan_ids": ["940GZZLUDGY"], "lines": ["DIS"]}, "557": {"name": "Debden", "asc": "DEBu", "lat": 51.645386, "lon": 0.083782, "naptan_ids": ["940GZZLUDBN"], "lines": ["CEN"]}, "558": {"name": "Dollis Hill", "asc": "DHLu", "lat": 51.551955, "lon": -0.239068, "naptan_ids": ["940GZZLUDOH"], "lines": ["JUB"]}, "559": {"name": "West Silvertown", "asc": "WSId", "lat": 51.502838, "lon": 0.02246, "naptan_ids": ["940GZZDLWSV"], "lines": ["DLR"]}, "560": {"name": "Ealing Broadway", "asc": "EBYu", "lat": 51.514929, "lon": -0.301604, "naptan_ids": ["910GEALINGB", "940GZZLUEBY"], "lines": ["CEN", "DIS", "EZL"]}, "561": {"name": "Ealing Common", "asc": "ECMu", "lat": 51.51014, "lon": -0.288265, "naptan_ids": ["940GZZLUECM"], "lines": ["DIS", "PIC"]}, "562": {"name": "Earl's Court", "asc": "ECTu", "lat": 51.492063, "lon": -0.193378, "naptan_ids": ["940GZZLUECT"], "lines": ["DIS", "PIC"]}, "563": {"name": "East Acton", "asc": "EACu", "lat": 51.516612, "lon": -0.247248, "naptan_ids": ["940GZZLUEAN"], "lines": ["CEN"]}, "564": {"name": "Eastcote", "asc": "ETEu", "lat": 51.576506, "lon": -0.397373, "naptan_ids": ["940GZZLUEAE"], "lines": ["MET", "PIC"]}, "565": {"name": "East Finchley", "asc": "EFYu", "lat": 51.587131, "lon": -0.165012, "naptan_ids": ["940GZZLUEFY"], "lines": ["NOR"]}, "566": {"name": "East Ham", "asc": "EHMu", "lat": 51.538948, "lon": 0.051186, "naptan_ids": ["940GZZLUEHM"], "lines": ["DIS", "HAM"]}, "567": {"name": "East Putney", "asc": "EPYu", "lat": 51.459205, "lon": -0.211, "naptan_ids": ["940GZZLUEPY"], "lines": ["DIS"]}, "568": {"name": "Edgware", "asc": "EDGu", "lat": 51.613653, "lon": -0.274928, "naptan_ids": ["940GZZLUEGW"], "lines": ["NOR"]}, "569": {"name": "Edgware Road (DIS)", "asc": "ERDu", "lat": 51.519858, "lon": -0.167832, "naptan_ids": ["940GZZLUERC"], "lines": ["CIR", "DIS", "HAM"]}, "570": {"name": "Elephant & Castle LU", "asc": "ELEu", "lat": 51.494536, "lon": -0.100606, "naptan_ids": ["940GZZLUEAC"], "lines": ["BAK", "NOR"]}, "571": {"name": "Elm Park", "asc": "EPKu", "lat": 51.549775, "lon": 0.19864, "naptan_ids": ["940GZZLUEPK"], "lines": ["DIS"]}, "572": {"name": "Epping", "asc": "EPPu", "lat": 51.69368, "lon": 0.113767, "naptan_ids": ["940GZZLUEPG"], "lines": ["CEN"]}, "573": {"name": "Woolwich Arsenal", "asc": "WOAd", "lat": 51.490009, "lon": 0.069127, "naptan_ids": ["940GZZDLWLA"], "lines": ["DLR"]}, "574": {"name": "Euston LU", "asc": "EUSu", "lat": 51.527999, "lon": -0.133785, "naptan_ids": ["940GZZLUEUS"], "lines": ["NOR", "VIC"]}, "575": {"name": "Euston Square", "asc": "ESQu", "lat": 51.525604, "lon": -0.135829, "naptan_ids": ["940GZZLUESQ"], "lines": ["CIR", "HAM", "MET"]}, "576": {"name": "Fairlop", "asc": "FLPu", "lat": 51.595618, "lon": 0.091004, "naptan_ids": ["940GZZLUFLP"], "lines": ["CEN"]}, "577": {"name": "Farringdon", "asc": "FARu", "lat": 51.520221, "lon": -0.104914, "naptan_ids": ["910GFRNDXR", "940GZZLUFCN"], "lines": ["CIR", "EZL", "HAM", "MET"]}, "578": {"name": "Finchley Central", "asc": "FYCu", "lat": 51.600921, "lon": -0.192527, "naptan_ids": ["940GZZLUFYC"], "lines": ["NOR"]}, "579": {"name": "Finchley Road", "asc": "FRDu", "lat": 51.546825, "lon": -0.179845, "naptan_ids": ["940GZZLUFYR"], "lines": ["JUB", "MET"]}, "580": {"name": "Finsbury Park", "asc": "FPKu", "lat": 51.564158, "lon": -0.106825, "naptan_ids": ["940GZZLUFPK"], "lines": ["PIC", "VIC"]}, "581": {"name": "Fulham Broadway", "asc": "FBYu", "lat": 51.480081, "lon": -0.195422, "naptan_ids": ["940GZZLUFBY"], "lines": ["DIS"]}, "582": {"name": "Gants Hill", "asc": "GHLu", "lat": 51.576544, "lon": 0.066185, "naptan_ids": ["940GZZLUGTH"], "lines": ["CEN"]}, "583": {"name": "Gloucester Road", "asc": "GRDu", "lat": 51.494316, "lon": -0.182658, "naptan_ids": ["940GZZLUGTR"], "lines": ["CIR", "DIS", "PIC"]}, "584": {"name": "Golders Green", "asc": "GGRu", "lat": 51.572259, "lon": -0.194039, "naptan_ids": ["940GZZLUGGN"], "lines": ["NOR"]}, "585": {"name": "Goldhawk Road", "asc": "GHRu", "lat": 51.502005, "lon": -0.226715, "naptan_ids": ["940GZZLUGHK"], "lines": ["CIR", "HAM"]}, "586": {"name": "Goodge Street", "asc": "GSTu", "lat": 51.520599, "lon": -0.134361, "naptan_ids": ["940GZZLUGDG"], "lines": ["NOR"]}, "587": {"name": "Grange Hill", "asc": "GRHu", "lat": 51.613378, "lon": 0.092066, "naptan_ids": ["940GZZLUGGH"], "lines": ["CEN"]}, "588": {"name": "Great Portland Street", "asc": "GPSu", "lat": 51.52384, "lon": -0.144262, "naptan_ids": ["940GZZLUGPS"], "lines": ["CIR", "HAM", "MET"]}, "589": {"name": "Greenford", "asc": "GFDu", "lat": 51.542424, "lon": -0.34605, "naptan_ids": ["940GZZLUGFD"], "lines": ["CEN"]}, "590": {"name": "Green Park", "asc": "GPKu", "lat": 51.506947, "lon": -0.142787, "naptan_ids": ["940GZZLUGPK"], "lines": ["JUB", "PIC", "VIC"]}, "591": {"name": "Gunnersbury", "asc": "GUNu", "lat": 51.49174, "lon": -0.275276, "naptan_ids": ["910GGNRSBRY", "940GZZLUGBY"], "lines": ["DIS", "NLL"]}, "592": {"name": "Hainault", "asc": "HAIu", "lat": 51.603659, "lon": 0.093482, "naptan_ids": ["940GZZLUHLT"], "lines": ["CEN"]}, "593": {"name": "Hammersmith (DIS)", "asc": "HMDu", "lat": 51.4923, "lon": -0.22362, "naptan_ids": ["940GZZLUHSD"], "lines": ["DIS", "PIC"]}, "594": {"name": "Hampstead", "asc": "HMPu", "lat": 51.556239, "lon": -0.177464, "naptan_ids": ["940GZZLUHTD"], "lines": ["NOR"]}, "595": {"name": "Hanger Lane", "asc": "HLNu", "lat": 51.530177, "lon": -0.292704, "naptan_ids": ["940GZZLUHGR"], "lines": ["CEN"]}, "596": {"name": "Harlesden", "asc": "HARu", "lat": 51.536299, "lon": -0.257775, "naptan_ids": ["910GHARLSDN", "940GZZLUHSN"], "lines": ["BAK", "WEL"]}, "597": {"name": "Harrow & Wealdstone", "asc": "HAWu", "lat": 51.592219, "lon": -0.334894, "naptan_ids": ["910GHROW", "940GZZLUHAW"], "lines": ["BAK", "WEL"]}, "598": {"name": "Harrow-on-the-Hill", "asc": "HOHu", "lat": 51.579195, "lon": -0.337225, "naptan_ids": ["940GZZLUHOH"], "lines": ["MET"]}, "599": {"name": "Wood Lane", "asc": "WDLu", "lat": 51.509669, "lon": -0.22453, "naptan_ids": ["940GZZLUWLA"], "lines": ["CIR", "HAM"]}, "601": {"name": "Hendon Central", "asc": "HNDu", "lat": 51.583301, "lon": -0.226424, "naptan_ids": ["940GZZLUHCL"], "lines": ["NOR"]}, "602": {"name": "High Barnet", "asc": "HBTu", "lat": 51.650541, "lon": -0.194298, "naptan_ids": ["940GZZLUHBT"], "lines": ["NOR"]}, "603": {"name": "Highbury & Islington", "asc": "HBYu", "lat": 51.546263, "lon": -0.103544, "naptan_ids": ["910GHGHI", "940GZZLUHAI"], "lines": ["ELL", "NLL", "VIC"]}, "604": {"name": "Highgate", "asc": "HIGu", "lat": 51.577532, "lon": -0.145857, "naptan_ids": ["940GZZLUHGT"], "lines": ["NOR"]}, "605": {"name": "High Street Kensington", "asc": "HSTu", "lat": 51.501055, "lon": -0.192792, "naptan_ids": ["940GZZLUHSK"], "lines": ["CIR", "DIS"]}, "606": {"name": "Hillingdon", "asc": "HDNu", "lat": 51.553715, "lon": -0.449828, "naptan_ids": ["940GZZLUHGD"], "lines": ["MET", "PIC"]}, "607": {"name": "Holborn", "asc": "HOLu", "lat": 51.51758, "lon": -0.120475, "naptan_ids": ["940GZZLUHBN"], "lines": ["CEN", "PIC"]}, "608": {"name": "Holland Park", "asc": "HPKu", "lat": 51.507143, "lon": -0.205679, "naptan_ids": ["940GZZLUHPK"], "lines": ["CEN"]}, "609": {"name": "Holloway Road", "asc": "HRDu", "lat": 51.552697, "lon": -0.113244, "naptan_ids": ["940GZZLUHWY"], "lines": ["PIC"]}, "610": {"name": "Hornchurch", "asc": "HCHu", "lat": 51.554093, "lon": 0.219116, "naptan_ids": ["940GZZLUHCH"], "lines": ["DIS"]}, "611": {"name": "Hounslow Central", "asc": "HNCu", "lat": 51.471295, "lon": -0.366578, "naptan_ids": ["940GZZLUHWC"], "lines": ["PIC"]}, "612": {"name": "Hounslow East", "asc": "HNEu", "lat": 51.473213, "lon": -0.356474, "naptan_ids": ["940GZZLUHWE"], "lines": ["PIC"]}, "613": {"name": "Hounslow West", "asc": "HNWu", "lat": 51.473469, "lon": -0.386544, "naptan_ids": ["940GZZLUHWT"], "lines": ["PIC"]}, "614": {"name": "Hyde Park Corner", "asc": "HPCu", "lat": 51.503035, "lon": -0.152441, "naptan_ids": ["940GZZLUHPC"], "lines": ["PIC"]}, "615": {"name": "Ickenham", "asc": "ICKu", "lat": 51.56202, "lon": -0.4419, "naptan_ids": ["940GZZLUICK"], "lines": ["MET", "PIC"]}, "616": {"name": "Kennington", "asc": "KENu", "lat": 51.488337, "lon": -0.105963, "naptan_ids": ["940GZZLUKNG"], "lines": ["NOR"]}, "617": {"name": "Kensal Green", "asc": "KGNu", "lat": 51.53054, "lon": -0.225052, "naptan_ids": ["910GKENSLG", "940GZZLUKSL"], "lines": ["BAK", "WEL"]}, "618": {"name": "Kensington (Olympia)", "asc": "OLYu", "lat": 51.497761, "lon": -0.21019, "naptan_ids": ["910GKENOLYM", "940GZZLUKOY"], "lines": ["DIS", "NLL"]}, "619": {"name": "Kentish Town", "asc": "KTNu", "lat": 51.550312, "lon": -0.140733, "naptan_ids": ["940GZZLUKSH"], "lines": ["NOR"]}, "620": {"name": "Kenton", "asc": "KETu", "lat": 51.581779, "lon": -0.316945, "naptan_ids": ["910GKTON", "940GZZLUKEN"], "lines": ["BAK", "WEL"]}, "621": {"name": "Kew Gardens", "asc": "KEWu", "lat": 51.477065, "lon": -0.285147, "naptan_ids": ["910GKEWGRDN", "940GZZLUKWG"], "lines": ["DIS", "NLL"]}, "622": {"name": "Kilburn", "asc": "KILu", "lat": 51.547183, "lon": -0.204248, "naptan_ids": ["940GZZLUKBN"], "lines": ["JUB"]}, "623": {"name": "Kilburn Park", "asc": "KPKu", "lat": 51.534979, "lon": -0.194232, "naptan_ids": ["940GZZLUKPK"], "lines": ["BAK"]}, "624": {"name": "Kingsbury", "asc": "KBYu", "lat": 51.584845, "lon": -0.27879, "naptan_ids": ["940GZZLUKBY"], "lines": ["JUB"]}, "625": {"name": "King's Cross St. Pancras", "asc": "KXXu", "lat": 51.530663, "lon": -0.123194, "naptan_ids": ["940GZZLUKSX"], "lines": ["CIR", "HAM", "MET", "NOR", "PIC", "VIC"]}, "626": {"name": "Knightsbridge", "asc": "KNBu", "lat": 51.501669, "lon": -0.160508, "naptan_ids": ["940GZZLUKNB"], "lines": ["PIC"]}, "627": {"name": "Ladbroke Grove", "asc": "LGRu", "lat": 51.517449, "lon": -0.210391, "naptan_ids": ["940GZZLULAD"], "lines": ["CIR", "HAM"]}, "628": {"name": "Lambeth North", "asc": "LAMu", "lat": 51.498808, "lon": -0.112315, "naptan_ids": ["940GZZLULBN"], "lines": ["BAK"]}, "629": {"name": "Lancaster Gate", "asc": "LANu", "lat": 51.511723, "lon": -0.175494, "naptan_ids": ["940GZZLULGT"], "lines": ["CEN"]}, "630": {"name": "Latimer Road", "asc": "LATu", "lat": 51.513389, "lon": -0.217799, "naptan_ids": ["940GZZLULRD"], "lines": ["CIR", "HAM"]}, "631": {"name": "Leicester Square", "asc": "LSQu", "lat": 51.511386, "lon": -0.128426, "naptan_ids": ["940GZZLULSQ"], "lines": ["NOR", "PIC"]}, "632": {"name": "Leyton", "asc": "LEYu", "lat": 51.556589, "lon": -0.005523, "naptan_ids": ["940GZZLULYN"], "lines": ["CEN"]}, "633": {"name": "Leytonstone", "asc": "LYSu", "lat": 51.568324, "lon": 0.008194, "naptan_ids": ["940GZZLULYS"], "lines": ["CEN"]}, "634": {"name": "Liverpool Street LU", "asc": "LSTu", "lat": 51.517372, "lon": -0.083182, "naptan_ids": ["940GZZLULVT"], "lines": ["CEN", "CIR", "HAM", "MET"]}, "635": {"name": "London Bridge LU", "asc": "LONu", "lat": 51.505721, "lon": -0.088873, "naptan_ids": ["940GZZLULNB"], "lines": ["JUB", "NOR"]}, "636": {"name": "Loughton", "asc": "LTNu", "lat": 51.641443, "lon": 0.055476, "naptan_ids": ["940GZZLULGN"], "lines": ["CEN"]}, "637": {"name": "Maida Vale", "asc": "MDVu", "lat": 51.529777, "lon": -0.185758, "naptan_ids": ["940GZZLUMVL"], "lines": ["BAK"]}, "638": {"name": "Manor House", "asc": "MNRu", "lat": 51.570738, "lon": -0.096118, "naptan_ids": ["940GZZLUMRH"], "lines": ["PIC"]}, "639": {"name": "Mansion House", "asc": "MANu", "lat": 51.512117, "lon": -0.094009, "naptan_ids": ["940GZZLUMSH"], "lines": ["CIR", "DIS"]}, "640": {"name": "Marble Arch", "asc": "MARu", "lat": 51.513424, "lon": -0.158953, "naptan_ids": ["940GZZLUMBA"], "lines": ["CEN"]}, "641": {"name": "Marylebone LU", "asc": "MYBu", "lat": 51.522322, "lon": -0.163207, "naptan_ids": ["940GZZLUMYB"], "lines": ["BAK"]}, "642": {"name": "Mile End", "asc": "MLEu", "lat": 51.525122, "lon": -0.03364, "naptan_ids": ["940GZZLUMED"], "lines": ["CEN", "DIS", "HAM"]}, "643": {"name": "Mill Hill East", "asc": "MHEu", "lat": 51.608229, "lon": -0.209986, "naptan_ids": ["940GZZLUMHL"], "lines": ["NOR"]}, "645": {"name": "Moorgate", "asc": "MGTu", "lat": 51.518176, "lon": -0.088322, "naptan_ids": ["940GZZLUMGT"], "lines": ["CIR", "HAM", "MET", "NOR"]}, "646": {"name": "Moor Park", "asc": "MPKu", "lat": 51.629845, "lon": -0.432454, "naptan_ids": ["940GZZLUMPK"], "lines": ["MET"]}, "647": {"name": "Morden", "asc": "MORu", "lat": 51.402142, "lon": -0.194839, "naptan_ids": ["940GZZLUMDN"], "lines": ["NOR"]}, "648": {"name": "Mornington Crescent", "asc": "MCRu", "lat": 51.534679, "lon": -0.138789, "naptan_ids": ["940GZZLUMTC"], "lines": ["NOR"]}, "649": {"name": "Neasden", "asc": "NEAu", "lat": 51.553986, "lon": -0.249837, "naptan_ids": ["940GZZLUNDN"], "lines": ["JUB"]}, "650": {"name": "Newbury Park", "asc": "NEPu", "lat": 51.575726, "lon": 0.090004, "naptan_ids": ["940GZZLUNBP"], "lines": ["CEN"]}, "653": {"name": "North Acton", "asc": "NACu", "lat": 51.523524, "lon": -0.259755, "naptan_ids": ["940GZZLUNAN"], "lines": ["CEN"]}, "654": {"name": "North Ealing", "asc": "NELu", "lat": 51.517505, "lon": -0.288868, "naptan_ids": ["940GZZLUNEN"], "lines": ["PIC"]}, "655": {"name": "Northfields", "asc": "NFDu", "lat": 51.499319, "lon": -0.314719, "naptan_ids": ["940GZZLUNFD"], "lines": ["PIC"]}, "656": {"name": "North Harrow", "asc": "NHRu", "lat": 51.584872, "lon": -0.362408, "naptan_ids": ["940GZZLUNHA"], "lines": ["MET"]}, "657": {"name": "Northolt", "asc": "NHTu", "lat": 51.548236, "lon": -0.368699, "naptan_ids": ["940GZZLUNHT"], "lines": ["CEN"]}, "659": {"name": "North Wembley", "asc": "NWBu", "lat": 51.562573, "lon": -0.303992, "naptan_ids": ["910GNWEMBLY", "940GZZLUNWY"], "lines": ["BAK", "WEL"]}, "660": {"name": "Northwick Park", "asc": "NWPu", "lat": 51.578481, "lon": -0.318056, "naptan_ids": ["940GZZLUNKP"], "lines": ["MET"]}, "661": {"name": "Northwood", "asc": "NWDu", "lat": 51.611053, "lon": -0.423829, "naptan_ids": ["940GZZLUNOW"], "lines": ["MET"]}, "662": {"name": "Northwood Hills", "asc": "NWHu", "lat": 51.600572, "lon": -0.409464, "naptan_ids": ["940GZZLUNWH"], "lines": ["MET"]}, "663": {"name": "Notting Hill Gate", "asc": "NHGu", "lat": 51.509128, "lon": -0.196104, "naptan_ids": ["940GZZLUNHG"], "lines": ["CEN", "CIR", "DIS"]}, "664": {"name": "Oakwood", "asc": "OAKu", "lat": 51.647726, "lon": -0.132182, "naptan_ids": ["940GZZLUOAK"], "lines": ["PIC"]}, "665": {"name": "Old Street", "asc": "OLDu", "lat": 51.525864, "lon": -0.08777, "naptan_ids": ["940GZZLUODS"], "lines": ["NOR"]}, "667": {"name": "Osterley", "asc": "OSTu", "lat": 51.481274, "lon": -0.352224, "naptan_ids": ["940GZZLUOSY"], "lines": ["PIC"]}, "668": {"name": "Oval", "asc": "OVLu", "lat": 51.48185, "lon": -0.112439, "naptan_ids": ["940GZZLUOVL"], "lines": ["NOR"]}, "669": {"name": "Oxford Circus", "asc": "OXCu", "lat": 51.515224, "lon": -0.141903, "naptan_ids": ["940GZZLUOXC"], "lines": ["BAK", "CEN", "VIC"]}, "670": {"name": "Paddington TfL", "asc": "PADu", "lat": 51.516581, "lon": -0.175689, "naptan_ids": ["940GZZLUPAC"], "lines": ["BAK", "CIR", "DIS"]}, "671": {"name": "Park Royal", "asc": "PRYu", "lat": 51.527123, "lon": -0.284341, "naptan_ids": ["940GZZLUPKR"], "lines": ["PIC"]}, "672": {"name": "Parsons Green", "asc": "PGRu", "lat": 51.475277, "lon": -0.20117, "naptan_ids": ["940GZZLUPSG"], "lines": ["DIS"]}, "673": {"name": "Perivale", "asc": "PERu", "lat": 51.536717, "lon": -0.323446, "naptan_ids": ["940GZZLUPVL"], "lines": ["CEN"]}, "674": {"name": "Piccadilly Circus", "asc": "PICu", "lat": 51.51005, "lon": -0.133798, "naptan_ids": ["940GZZLUPCC"], "lines": ["BAK", "PIC"]}, "675": {"name": "Pinner", "asc": "PINu", "lat": 51.592901, "lon": -0.381161, "naptan_ids": ["940GZZLUPNR"], "lines": ["MET"]}, "676": {"name": "Plaistow", "asc": "PLWu", "lat": 51.531341, "lon": 0.017451, "naptan_ids": ["940GZZLUPLW"], "lines": ["DIS", "HAM"]}, "677": {"name": "Preston Road", "asc": "PRDu", "lat": 51.571972, "lon": -0.295107, "naptan_ids": ["940GZZLUPRD"], "lines": ["MET"]}, "678": {"name": "Putney Bridge", "asc": "PUTu", "lat": 51.468262, "lon": -0.208731, "naptan_ids": ["940GZZLUPYB"], "lines": ["DIS"]}, "679": {"name": "Queensbury", "asc": "QBYu", "lat": 51.594188, "lon": -0.286219, "naptan_ids": ["940GZZLUQBY"], "lines": ["JUB"]}, "680": {"name": "Queen's Park", "asc": "QPKu", "lat": 51.534062, "lon": -0.20478, "naptan_ids": ["910GQPRK", "940GZZLUQPS"], "lines": ["BAK", "WEL"]}, "681": {"name": "Queensway", "asc": "QWYu", "lat": 51.510312, "lon": -0.187152, "naptan_ids": ["940GZZLUQWY"], "lines": ["CEN"]}, "682": {"name": "Ravenscourt Park", "asc": "RCPu", "lat": 51.494122, "lon": -0.235881, "naptan_ids": ["940GZZLURVP"], "lines": ["DIS"]}, "683": {"name": "Rayners Lane", "asc": "RAYu", "lat": 51.575147, "lon": -0.371127, "naptan_ids": ["940GZZLURYL"], "lines": ["MET", "PIC"]}, "684": {"name": "Redbridge", "asc": "REDu", "lat": 51.576243, "lon": 0.04536, "naptan_ids": ["940GZZLURBG"], "lines": ["CEN"]}, "685": {"name": "Regent's Park", "asc": "RPKu", "lat": 51.523344, "lon": -0.146444, "naptan_ids": ["940GZZLURGP"], "lines": ["BAK"]}, "686": {"name": "Richmond", "asc": "RMDu", "lat": 51.463149, "lon": -0.301447, "naptan_ids": ["910GRICHMND", "940GZZLURMD"], "lines": ["DIS", "NLL"]}, "687": {"name": "Rickmansworth", "asc": "RKYu", "lat": 51.640207, "lon": -0.473703, "naptan_ids": ["940GZZLURKW"], "lines": ["MET"]}, "688": {"name": "Roding Valley", "asc": "RODu", "lat": 51.617199, "lon": 0.043647, "naptan_ids": ["940GZZLURVY"], "lines": ["CEN"]}, "690": {"name": "Royal Oak", "asc": "ROYu", "lat": 51.519113, "lon": -0.188748, "naptan_ids": ["940GZZLURYO"], "lines": ["CIR", "HAM"]}, "691": {"name": "Ruislip", "asc": "RUIu", "lat": 51.571354, "lon": -0.421898, "naptan_ids": ["940GZZLURSP"], "lines": ["MET", "PIC"]}, "692": {"name": "Ruislip Gardens", "asc": "RUGu", "lat": 51.560736, "lon": -0.41071, "naptan_ids": ["940GZZLURSG"], "lines": ["CEN"]}, "693": {"name": "Ruislip Manor", "asc": "RUMu", "lat": 51.573202, "lon": -0.412973, "naptan_ids": ["940GZZLURSM"], "lines": ["MET", "PIC"]}, "694": {"name": "Russell Square", "asc": "RSQu", "lat": 51.523073, "lon": -0.124285, "naptan_ids": ["940GZZLURSQ"], "lines": ["PIC"]}, "695": {"name": "St James's Park", "asc": "SJPu", "lat": 51.499544, "lon": -0.133608, "naptan_ids": ["940GZZLUSJP"], "lines": ["CIR", "DIS"]}, "696": {"name": "St John's Wood", "asc": "SJWu", "lat": 51.534521, "lon": -0.173948, "naptan_ids": ["940GZZLUSJW"], "lines": ["JUB"]}, "697": {"name": "St Paul's", "asc": "STPu", "lat": 51.514936, "lon": -0.097567, "naptan_ids": ["940GZZLUSPU"], "lines": ["CEN"]}, "698": {"name": "Seven Sisters", "asc": "SVSu", "lat": 51.582799, "lon": -0.073927, "naptan_ids": ["910GSEVNSIS", "940GZZLUSVS"], "lines": ["VIC", "WAG"]}, "702": {"name": "Sloane Square", "asc": "SSQu", "lat": 51.49227, "lon": -0.156377, "naptan_ids": ["940GZZLUSSQ"], "lines": ["CIR", "DIS"]}, "703": {"name": "Snaresbrook", "asc": "SNBu", "lat": 51.580678, "lon": 0.02144, "naptan_ids": ["940GZZLUSNB"], "lines": ["CEN"]}, "704": {"name": "South Ealing", "asc": "SELu", "lat": 51.501003, "lon": -0.307424, "naptan_ids": ["940GZZLUSEA"], "lines": ["PIC"]}, "705": {"name": "Southfields", "asc": "SFSu", "lat": 51.445073, "lon": -0.206602, "naptan_ids": ["940GZZLUSFS"], "lines": ["DIS"]}, "706": {"name": "Southgate", "asc": "SGTu", "lat": 51.632315, "lon": -0.127816, "naptan_ids": ["940GZZLUSGT"], "lines": ["PIC"]}, "707": {"name": "South Harrow", "asc": "SHRu", "lat": 51.564888, "lon": -0.352492, "naptan_ids": ["940GZZLUSHH"], "lines": ["PIC"]}, "708": {"name": "South Kensington", "asc": "SKNu", "lat": 51.494094, "lon": -0.174138, "naptan_ids": ["940GZZLUSKS"], "lines": ["CIR", "DIS", "PIC"]}, "709": {"name": "South Kenton", "asc": "SKTu", "lat": 51.570223, "lon": -0.308447, "naptan_ids": ["910GSKENTON", "940GZZLUSKT"], "lines": ["BAK", "WEL"]}, "710": {"name": "South Ruislip", "asc": "SRPu", "lat": 51.556853, "lon": -0.398915, "naptan_ids": ["940GZZLUSRP"], "lines": ["CEN"]}, "711": {"name": "South Wimbledon", "asc": "SWMu", "lat": 51.415309, "lon": -0.192005, "naptan_ids": ["940GZZLUSWN"], "lines": ["NOR"]}, "712": {"name": "South Woodford", "asc": "SWFu", "lat": 51.591907, "lon": 0.027338, "naptan_ids": ["940GZZLUSWF"], "lines": ["CEN"]}, "713": {"name": "Stamford Brook", "asc": "STBu", "lat": 51.494917, "lon": -0.245704, "naptan_ids": ["940GZZLUSFB"], "lines": ["DIS"]}, "714": {"name": "Stanmore", "asc": "STAu", "lat": 51.619839, "lon": -0.303266, "naptan_ids": ["940GZZLUSTM"], "lines": ["JUB"]}, "715": {"name": "Stepney Green", "asc": "STGu", "lat": 51.521858, "lon": -0.046596, "naptan_ids": ["940GZZLUSGN"], "lines": ["DIS", "HAM"]}, "716": {"name": "Stockwell", "asc": "STKu", "lat": 51.472184, "lon": -0.122644, "naptan_ids": ["940GZZLUSKW"], "lines": ["NOR", "VIC"]}, "717": {"name": "Stonebridge Park", "asc": "SPKu", "lat": 51.544035, "lon": -0.27586, "naptan_ids": ["910GSTNBGPK", "940GZZLUSGP"], "lines": ["BAK", "WEL"]}, "718": {"name": "Charing Cross LU", "asc": "CHXu", "lat": 51.50741, "lon": -0.127277, "naptan_ids": ["940GZZLUCHX"], "lines": ["BAK", "NOR"]}, "719": {"name": "Stratford", "asc": "SFDu", "lat": 51.54182, "lon": -0.003381, "naptan_ids": ["910GSTFD", "940GZZDLSTD", "940GZZLUSTD"], "lines": ["CEN", "DLR", "EZL", "JUB", "NLL"]}, "720": {"name": "Sudbury Hill", "asc": "SHLu", "lat": 51.556946, "lon": -0.336435, "naptan_ids": ["940GZZLUSUH"], "lines": ["PIC"]}, "721": {"name": "Sudbury Town", "asc": "STNu", "lat": 51.550815, "lon": -0.315745, "naptan_ids": ["940GZZLUSUT"], "lines": ["PIC"]}, "723": {"name": "Swiss Cottage", "asc": "SWCu", "lat": 51.543681, "lon": -0.174894, "naptan_ids": ["940GZZLUSWC"], "lines": ["JUB"]}, "724": {"name": "Temple", "asc": "TEMu", "lat": 51.511006, "lon": -0.11426, "naptan_ids": ["940GZZLUTMP"], "lines": ["CIR", "DIS"]}, "725": {"name": "Theydon Bois", "asc": "THBu", "lat": 51.671759, "lon": 0.103085, "naptan_ids": ["940GZZLUTHB"], "lines": ["CEN"]}, "726": {"name": "Tooting Bec", "asc": "TBEu", "lat": 51.435678, "lon": -0.159736, "naptan_ids": ["940GZZLUTBC"], "lines": ["NOR"]}, "727": {"name": "Tooting Broadway", "asc": "TBYu", "lat": 51.42763, "lon": -0.168374, "naptan_ids": ["940GZZLUTBY"], "lines": ["NOR"]}, "728": {"name": "Tottenham Court Road", "asc": "TCRu", "lat": 51.516062, "lon": -0.130425, "naptan_ids": ["910GTOTCTRD", "940GZZLUTCR"], "lines": ["CEN", "EZL", "NOR"]}, "6872": {"name": "Brentwood", "asc": "BREr", "lat": 51.613605, "lon": 0.299586, "naptan_ids": ["910GBRTWOOD"], "lines": ["EZL"]}, "730": {"name": "Totteridge & Whetstone", "asc": "TOTu", "lat": 51.630597, "lon": -0.17921, "naptan_ids": ["940GZZLUTAW"], "lines": ["NOR"]}, "6874": {"name": "Chadwell Heath", "asc": "CTHr", "lat": 51.568039, "lon": 0.128958, "naptan_ids": ["910GCHDWLHT"], "lines": ["EZL"]}, "731": {"name": "Tower Hill", "asc": "THLu", "lat": 51.509971, "lon": -0.076546, "naptan_ids": ["940GZZLUTWH"], "lines": ["CIR", "DIS"]}, "733": {"name": "Tufnell Park", "asc": "TPKu", "lat": 51.556822, "lon": -0.138433, "naptan_ids": ["940GZZLUTFP"], "lines": ["NOR"]}, "6876": {"name": "Forest Gate", "asc": "FOGr", "lat": 51.549432, "lon": 0.024353, "naptan_ids": ["910GFRSTGT"], "lines": ["EZL"]}, "6877": {"name": "Gidea Park", "asc": "GDPr", "lat": 51.581904, "lon": 0.205964, "naptan_ids": ["910GGIDEAPK"], "lines": ["EZL"]}, "734": {"name": "Turnham Green", "asc": "TGRu", "lat": 51.495148, "lon": -0.254555, "naptan_ids": ["940GZZLUTNG"], "lines": ["DIS", "PIC"]}, "6878": {"name": "Goodmayes", "asc": "GMYr", "lat": 51.565579, "lon": 0.110807, "naptan_ids": ["910GGODMAYS"], "lines": ["EZL"]}, "736": {"name": "Upminster", "asc": "UPMu", "lat": 51.559041, "lon": 0.250881, "naptan_ids": ["910GUPMNSTR", "940GZZLUUPM"], "lines": ["DIS", "URL"]}, "737": {"name": "Upminster Bridge", "asc": "UPBu", "lat": 51.55856, "lon": 0.235809, "naptan_ids": ["940GZZLUUPB"], "lines": ["DIS"]}, "738": {"name": "Upney", "asc": "UPYu", "lat": 51.538372, "lon": 0.10153, "naptan_ids": ["940GZZLUUPY"], "lines": ["DIS"]}, "739": {"name": "Upton Park", "asc": "UPKu", "lat": 51.53534, "lon": 0.035263, "naptan_ids": ["940GZZLUUPK"], "lines": ["DIS", "HAM"]}, "6883": {"name": "Manor Park", "asc": "MNPr", "lat": 51.552477, "lon": 0.046342, "naptan_ids": ["910GMANRPK"], "lines": ["EZL"]}, "741": {"name": "Victoria LU", "asc": "VICu", "lat": 51.496359, "lon": -0.143102, "naptan_ids": ["940GZZLUVIC"], "lines": ["CIR", "DIS", "VIC"]}, "6881": {"name": "Ilford", "asc": "IFDr", "lat": 51.559118, "lon": 0.06968, "naptan_ids": ["910GILFORD"], "lines": ["EZL"]}, "743": {"name": "Wanstead", "asc": "WANu", "lat": 51.575501, "lon": 0.028527, "naptan_ids": ["940GZZLUWSD"], "lines": ["CEN"]}, "6886": {"name": "Romford", "asc": "RMFr", "lat": 51.574829, "lon": 0.183237, "naptan_ids": ["910GROMFORD"], "lines": ["EZL", "URL"]}, "6888": {"name": "Shenfield", "asc": "SNFr", "lat": 51.630877, "lon": 0.329851, "naptan_ids": ["910GSHENFLD"], "lines": ["EZL"]}, "748": {"name": "Watford", "asc": "WATu", "lat": 51.657446, "lon": -0.417377, "naptan_ids": ["940GZZLUWAF"], "lines": ["MET"]}, "746": {"name": "Warwick Avenue", "asc": "WARu", "lat": 51.523263, "lon": -0.183783, "naptan_ids": ["940GZZLUWKA"], "lines": ["BAK"]}, "747": {"name": "Waterloo LU", "asc": "WLOu", "lat": 51.503299, "lon": -0.11478, "naptan_ids": ["940GZZLUWLO"], "lines": ["BAK", "JUB", "NOR", "WAC"]}, "749": {"name": "Stratford High Street", "asc": "SHSd", "lat": 51.538196, "lon": -0.001078, "naptan_ids": ["940GZZDLSHS"], "lines": ["DLR"]}, "750": {"name": "Abbey Road", "asc": "ABRd", "lat": 51.531926, "lon": 0.003737, "naptan_ids": ["940GZZDLABR"], "lines": ["DLR"]}, "751": {"name": "Wembley Central", "asc": "WEMu", "lat": 51.552315, "lon": -0.296643, "naptan_ids": ["910GWMBY", "940GZZLUWYC"], "lines": ["BAK", "WEL"]}, "6893": {"name": "Seven Kings", "asc": "SVKr", "lat": 51.564026, "lon": 0.0971, "naptan_ids": ["910GSVNKNGS"], "lines": ["EZL"]}, "753": {"name": "West Acton", "asc": "WACu", "lat": 51.518001, "lon": -0.28098, "naptan_ids": ["940GZZLUWTA"], "lines": ["CEN"]}, "754": {"name": "Westbourne Park", "asc": "WBPu", "lat": 51.52111, "lon": -0.201065, "naptan_ids": ["940GZZLUWSP"], "lines": ["CIR", "HAM"]}, "755": {"name": "West Brompton", "asc": "WBTu", "lat": 51.487164, "lon": -0.195596, "naptan_ids": ["910GWBRMPTN", "940GZZLUWBN"], "lines": ["DIS", "NLL"]}, "752": {"name": "Wembley Park", "asc": "WPKu", "lat": 51.563198, "lon": -0.279262, "naptan_ids": ["940GZZLUWYP"], "lines": ["JUB", "MET"]}, "757": {"name": "West Ham", "asc": "WHMu", "lat": 51.528015, "lon": 0.004769, "naptan_ids": ["940GZZDLWHM", "940GZZLUWHM"], "lines": ["DIS", "DLR", "HAM", "JUB"]}, "758": {"name": "West Hampstead LU", "asc": "WHDu", "lat": 51.546638, "lon": -0.191059, "naptan_ids": ["940GZZLUWHP"], "lines": ["JUB"]}, "759": {"name": "West Harrow", "asc": "WHRu", "lat": 51.57971, "lon": -0.3534, "naptan_ids": ["940GZZLUWHW"], "lines": ["MET"]}, "760": {"name": "West Kensington", "asc": "WKNu", "lat": 51.490459, "lon": -0.206636, "naptan_ids": ["940GZZLUWKN"], "lines": ["DIS"]}, "761": {"name": "Westminster", "asc": "WMSu", "lat": 51.50132, "lon": -0.124861, "naptan_ids": ["940GZZLUWSM"], "lines": ["CIR", "DIS", "JUB"]}, "762": {"name": "West Ruislip", "asc": "WRPu", "lat": 51.569688, "lon": -0.437886, "naptan_ids": ["940GZZLUWRP"], "lines": ["CEN"]}, "763": {"name": "Whitechapel", "asc": "WCLu", "lat": 51.519472, "lon": -0.059973, "naptan_ids": ["910GWCHAPEL", "910GWCHAPXR", "940GZZLUWPL"], "lines": ["DIS", "ELL", "EZL", "HAM"]}, "764": {"name": "White City", "asc": "WCTu", "lat": 51.511959, "lon": -0.224297, "naptan_ids": ["940GZZLUWCY"], "lines": ["CEN"]}, "765": {"name": "Willesden Green", "asc": "WLGu", "lat": 51.549146, "lon": -0.221537, "naptan_ids": ["940GZZLUWIG"], "lines": ["JUB", "MET"]}, "766": {"name": "Willesden Junction", "asc": "WJNu", "lat": 51.532378, "lon": -0.244416, "naptan_ids": ["910GWLSDJHL", "940GZZLUWJN"], "lines": ["BAK", "NLL", "WEL"]}, "767": {"name": "Wimbledon", "asc": "WIMu", "lat": 51.421207, "lon": -0.206573, "naptan_ids": ["940GZZLUWIM"], "lines": ["DIS"]}, "768": {"name": "Wimbledon Park", "asc": "WMPu", "lat": 51.434573, "lon": -0.199719, "naptan_ids": ["940GZZLUWIP"], "lines": ["DIS"]}, "769": {"name": "Woodford", "asc": "WFDu", "lat": 51.606899, "lon": 0.03397, "naptan_ids": ["940GZZLUWOF"], "lines": ["CEN"]}, "771": {"name": "Woodside Park", "asc": "WSPu", "lat": 51.618014, "lon": -0.18542, "naptan_ids": ["940GZZLUWOP"], "lines": ["NOR"]}, "773": {"name": "Hammersmith (H&C)", "asc": "HMSu", "lat": 51.49339, "lon": -0.22503, "naptan_ids": ["940GZZLUHSC"], "lines": ["CIR", "HAM"]}, "774": {"name": "Edgware Road (Bak)", "asc": "ERBu", "lat": 51.520299, "lon": -0.17015, "naptan_ids": ["940GZZLUERB"], "lines": ["BAK"]}, "775": {"name": "Shepherd's Bush Market", "asc": "SBMu", "lat": 51.505579, "lon": -0.226375, "naptan_ids": ["940GZZLUSBM"], "lines": ["CIR", "HAM"]}, "770": {"name": "Wood Green", "asc": "WGNu", "lat": 51.597479, "lon": -0.109886, "naptan_ids": ["940GZZLUWOG"], "lines": ["PIC"]}, "776": {"name": "Pimlico", "asc": "PIMu", "lat": 51.489097, "lon": -0.133761, "naptan_ids": ["940GZZLUPCO"], "lines": ["VIC"]}, "777": {"name": "Vauxhall LU", "asc": "VUXu", "lat": 51.485743, "lon": -0.124204, "naptan_ids": ["940GZZLUVXL"], "lines": ["VIC"]}, "779": {"name": "Hatton Cross", "asc": "HTXu", "lat": 51.466747, "lon": -0.423191, "naptan_ids": ["940GZZLUHNX"], "lines": ["PIC"]}, "778": {"name": "Brixton LU", "asc": "BRXu", "lat": 51.462618, "lon": -0.114888, "naptan_ids": ["940GZZLUBXN"], "lines": ["VIC"]}, "781": {"name": "Heathrow Terminal 4 LU", "asc": "HRFu", "lat": 51.458524, "lon": -0.445771, "naptan_ids": ["940GZZLUHR4"], "lines": ["PIC"]}, "6919": {"name": "Highams Park", "asc": "HIPr", "lat": 51.60835, "lon": -0.000222, "naptan_ids": ["910GHGHMSPK"], "lines": ["WAG"]}, "783": {"name": "Heathrow Terminal 5 LU", "asc": "HRVu", "lat": 51.470052, "lon": -0.49056, "naptan_ids": ["940GZZLUHR5"], "lines": ["PIC"]}, "784": {"name": "Southwark", "asc": "SWKu", "lat": 51.50427, "lon": -0.105331, "naptan_ids": ["940GZZLUSWK"], "lines": ["JUB"]}, "6926": {"name": "Clapton", "asc": "CPTr", "lat": 51.561644, "lon": -0.057025, "naptan_ids": ["910GCLAPTON"], "lines": ["WAG"]}, "787": {"name": "Bermondsey", "asc": "BERu", "lat": 51.49775, "lon": -0.063993, "naptan_ids": ["940GZZLUBMY"], "lines": ["JUB"]}, "788": {"name": "Canada Water", "asc": "CWRu", "lat": 51.497961, "lon": -0.049562, "naptan_ids": ["910GCNDAW", "940GZZLUCWR"], "lines": ["ELL", "JUB"]}, "789": {"name": "North Greenwich", "asc": "NOGu", "lat": 51.50047, "lon": 0.004287, "naptan_ids": ["940GZZLUNGW"], "lines": ["JUB"]}, "6934": {"name": "Stoke Newington", "asc": "SKWr", "lat": 51.565233, "lon": -0.072887, "naptan_ids": ["910GSTKNWNG"], "lines": ["WAG"]}, "6941": {"name": "Edmonton Green", "asc": "EDRr", "lat": 51.624929, "lon": -0.061112, "naptan_ids": ["910GEDMNGRN"], "lines": ["WAG"]}, "6947": {"name": "Southbury", "asc": "SBUr", "lat": 51.648705, "lon": -0.052437, "naptan_ids": ["910GSBURY"], "lines": ["WAG"]}, "6949": {"name": "Theobalds Grove", "asc": "TEOr", "lat": 51.692457, "lon": -0.034831, "naptan_ids": ["910GTHBLDSG"], "lines": ["WAG"]}, "6952": {"name": "Turkey Street", "asc": "TURr", "lat": 51.672628, "lon": -0.047217, "naptan_ids": ["910GTURKYST"], "lines": ["WAG"]}, "6954": {"name": "Wood Street", "asc": "WSTr", "lat": 51.58658, "lon": -0.002405, "naptan_ids": ["910GWDST"], "lines": ["WAG"]}, "6956": {"name": "White Hart Lane", "asc": "WHLr", "lat": 51.605037, "lon": -0.070914, "naptan_ids": ["910GWHHRTLA"], "lines": ["WAG"]}, "6958": {"name": "Bruce Grove", "asc": "BCVr", "lat": 51.593959, "lon": -0.069867, "naptan_ids": ["910GBRUCGRV"], "lines": ["WAG"]}, "6959": {"name": "Enfield Town", "asc": "ENFr", "lat": 51.652026, "lon": -0.079328, "naptan_ids": ["910GENFLDTN"], "lines": ["WAG"]}, "6961": {"name": "Bethnal Green LO", "asc": "BETr", "lat": 51.523917, "lon": -0.059568, "naptan_ids": ["910GBTHNLGR"], "lines": ["WAG"]}, "6962": {"name": "Cambridge Heath", "asc": "CBHr", "lat": 51.531973, "lon": -0.057279, "naptan_ids": ["910GCAMHTH"], "lines": ["WAG"]}, "6965": {"name": "Liverpool Street NR", "asc": "LSTr", "lat": 51.517857, "lon": -0.081735, "naptan_ids": ["910GLIVST", "910GLIVSTLL"], "lines": ["EZL", "WAG"]}, "6966": {"name": "London Fields", "asc": "LOFr", "lat": 51.541153, "lon": -0.057753, "naptan_ids": ["910GLONFLDS"], "lines": ["WAG"]}, "6967": {"name": "Rectory Road", "asc": "RECr", "lat": 51.558502, "lon": -0.068267, "naptan_ids": ["910GRCTRYRD"], "lines": ["WAG"]}, "6968": {"name": "Stamford Hill", "asc": "SMHr", "lat": 51.574467, "lon": -0.076682, "naptan_ids": ["910GSTMFDHL"], "lines": ["WAG"]}, "6970": {"name": "Maryland", "asc": "MYLr", "lat": 51.546081, "lon": 0.005815, "naptan_ids": ["910GMRYLAND"], "lines": ["EZL"]}, "6972": {"name": "Silver Street", "asc": "SLVr", "lat": 51.614688, "lon": -0.06724, "naptan_ids": ["910GSIVRST"], "lines": ["WAG"]}, "6973": {"name": "St James Street", "asc": "SJSr", "lat": 51.580981, "lon": -0.032918, "naptan_ids": ["910GSTJMSST"], "lines": ["WAG"]}, "831": {"name": "Nine Elms", "asc": "NIEu", "lat": 51.479912, "lon": -0.128476, "naptan_ids": ["940GZZNEUGST"], "lines": ["NOR"]}, "832": {"name": "Battersea Power Station", "asc": "BPSu", "lat": 51.479932, "lon": -0.142142, "naptan_ids": ["940GZZBPSUST"], "lines": ["NOR"]}, "6977": {"name": "Hackney Central", "asc": "HKCr", "lat": 51.547105, "lon": -0.056058, "naptan_ids": ["910GHACKNYC"], "lines": ["NLL"]}, "6978": {"name": "Hackney Wick", "asc": "HKWr", "lat": 51.54341, "lon": -0.02492, "naptan_ids": ["910GHACKNYW"], "lines": ["NLL"]}, "6979": {"name": "Homerton", "asc": "HMNr", "lat": 51.547012, "lon": -0.04236, "naptan_ids": ["910GHOMRTON"], "lines": ["NLL"]}, "842": {"name": "Canary Wharf DLR", "asc": "CAWd", "lat": 51.504838, "lon": -0.020997, "naptan_ids": ["940GZZDLCAN"], "lines": ["DLR"]}, "850": {"name": "All Saints", "asc": "ALSd", "lat": 51.511, "lon": -0.013135, "naptan_ids": ["940GZZDLALL"], "lines": ["DLR"]}, "851": {"name": "Bow Church", "asc": "BOCd", "lat": 51.527858, "lon": -0.020936, "naptan_ids": ["940GZZDLBOW"], "lines": ["DLR"]}, "852": {"name": "Canary Wharf LU", "asc": "CWFu", "lat": 51.503488, "lon": -0.018246, "naptan_ids": ["940GZZLUCYF"], "lines": ["JUB"]}, "853": {"name": "Langdon Park", "asc": "LAPd", "lat": 51.515172, "lon": -0.01415, "naptan_ids": ["940GZZDLLDP"], "lines": ["DLR"]}, "854": {"name": "Crossharbour", "asc": "CROd", "lat": 51.495728, "lon": -0.014606, "naptan_ids": ["940GZZDLCLA"], "lines": ["DLR"]}, "855": {"name": "Heron Quays", "asc": "HEQd", "lat": 51.503379, "lon": -0.021421, "naptan_ids": ["940GZZDLHEQ"], "lines": ["DLR"]}, "856": {"name": "Island Gardens", "asc": "ISGd", "lat": 51.487811, "lon": -0.010139, "naptan_ids": ["940GZZDLISL"], "lines": ["DLR"]}, "857": {"name": "Mudchute", "asc": "MUDd", "lat": 51.490704, "lon": -0.014738, "naptan_ids": ["940GZZDLMUD"], "lines": ["DLR"]}, "858": {"name": "Poplar", "asc": "POPd", "lat": 51.507744, "lon": -0.017384, "naptan_ids": ["940GZZDLPOP"], "lines": ["DLR"]}, "859": {"name": "Pudding Mill Lane", "asc": "PMLd", "lat": 51.534302, "lon": -0.012755, "naptan_ids": ["940GZZDLPUD"], "lines": ["DLR"]}, "860": {"name": "Shadwell DLR", "asc": "SHAd", "lat": 51.511693, "lon": -0.056643, "naptan_ids": ["940GZZDLSHA"], "lines": ["DLR"]}, "861": {"name": "South Quay", "asc": "SOQd", "lat": 51.50005, "lon": -0.015975, "naptan_ids": ["940GZZDLSOQ"], "lines": ["DLR"]}, "862": {"name": "Limehouse DLR", "asc": "LIMd", "lat": 51.512393, "lon": -0.039809, "naptan_ids": ["940GZZDLLIM"], "lines": ["DLR"]}, "864": {"name": "Tower Gateway", "asc": "TOGd", "lat": 51.510617, "lon": -0.074818, "naptan_ids": ["940GZZDLTWG"], "lines": ["DLR"]}, "865": {"name": "Westferry", "asc": "WESd", "lat": 51.509431, "lon": -0.02675, "naptan_ids": ["940GZZDLWFE"], "lines": ["DLR"]}, "866": {"name": "West India Quay", "asc": "WIQd", "lat": 51.50703, "lon": -0.020311, "naptan_ids": ["940GZZDLWIQ"], "lines": ["DLR"]}, "867": {"name": "Devons Road", "asc": "DERd", "lat": 51.522667, "lon": -0.017615, "naptan_ids": ["940GZZDLDEV"], "lines": ["DLR"]}, "879": {"name": "Cutty Sark", "asc": "CUSd", "lat": 51.481671, "lon": -0.01081, "naptan_ids": ["940GZZDLCUT"], "lines": ["DLR"]}, "882": {"name": "Blackwall", "asc": "BLAd", "lat": 51.507991, "lon": -0.006969, "naptan_ids": ["940GZZDLBLA"], "lines": ["DLR"]}, "883": {"name": "East India", "asc": "EAId", "lat": 51.509359, "lon": -0.002326, "naptan_ids": ["940GZZDLEIN"], "lines": ["DLR"]}, "884": {"name": "Canning Town", "asc": "CNTu", "lat": 51.513856, "lon": 0.008212, "naptan_ids": ["940GZZDLCGT", "940GZZLUCGT"], "lines": ["DLR", "JUB"]}, "886": {"name": "Royal Victoria", "asc": "ROVd", "lat": 51.509336, "lon": 0.018497, "naptan_ids": ["940GZZDLRVC"], "lines": ["DLR"]}, "887": {"name": "Custom House DLR", "asc": "CUHd", "lat": 51.509716, "lon": 0.026699, "naptan_ids": ["940GZZDLCUS"], "lines": ["DLR"]}, "888": {"name": "Prince Regent", "asc": "PRRd", "lat": 51.509263, "lon": 0.034158, "naptan_ids": ["940GZZDLPRE"], "lines": ["DLR"]}, "889": {"name": "Star Lane", "asc": "STLd", "lat": 51.520786, "lon": 0.004156, "naptan_ids": ["940GZZDLSTL"], "lines": ["DLR"]}, "890": {"name": "Royal Albert", "asc": "ROAd", "lat": 51.508357, "lon": 0.045935, "naptan_ids": ["940GZZDLRAL"], "lines": ["DLR"]}, "891": {"name": "Beckton Park", "asc": "BEPd", "lat": 51.508793, "lon": 0.054932, "naptan_ids": ["940GZZDLBPK"], "lines": ["DLR"]}, "893": {"name": "Cyprus", "asc": "CYPd", "lat": 51.508473, "lon": 0.063925, "naptan_ids": ["940GZZDLCYP"], "lines": ["DLR"]}, "894": {"name": "Gallions Reach", "asc": "GARd", "lat": 51.508941, "lon": 0.071555, "naptan_ids": ["940GZZDLGAL"], "lines": ["DLR"]}, "895": {"name": "Beckton", "asc": "BECd", "lat": 51.514362, "lon": 0.061453, "naptan_ids": ["940GZZDLBEC"], "lines": ["DLR"]}, "897": {"name": "Deptford Bridge", "asc": "DEBd", "lat": 51.474215, "lon": -0.022438, "naptan_ids": ["940GZZDLDEP"], "lines": ["DLR"]}, "898": {"name": "Elverson Road", "asc": "ELRd", "lat": 51.469074, "lon": -0.016728, "naptan_ids": ["940GZZDLELV"], "lines": ["DLR"]}, "928": {"name": "Greenwich", "asc": "GREd", "lat": 51.478087, "lon": -0.013673, "naptan_ids": ["940GZZDLGRE"], "lines": ["DLR"]}, "940": {"name": "Lewisham DLR", "asc": "LEWd", "lat": 51.464665, "lon": -0.012874, "naptan_ids": ["940GZZDLLEW"], "lines": ["DLR"]}, "7090": {"name": "Heathrow Terminals 2 & 3 EL", "asc": "HXXr", "lat": 51.471611, "lon": -0.453526, "naptan_ids": ["910GHTRWAPT", "940GZZLUHRC"], "lines": ["EZL", "PIC"]}, "7091": {"name": "Heathrow Terminal 4 EL", "asc": "HAFr", "lat": 51.458268, "lon": -0.445463, "naptan_ids": ["910GHTRWTM4"], "lines": ["EZL"]}, "3000": {"name": "Acton Main Line", "asc": "AMLr", "lat": 51.51718, "lon": -0.266756, "naptan_ids": ["910GACTONML"], "lines": ["EZL"]}, "1022": {"name": "Haggerston", "asc": "HGGr", "lat": 51.538705, "lon": -0.075666, "naptan_ids": ["910GHAGGERS"], "lines": ["ELL"]}, "1023": {"name": "Hoxton", "asc": "HOXr", "lat": 51.531512, "lon": -0.075681, "naptan_ids": ["910GHOXTON"], "lines": ["ELL"]}, "1024": {"name": "Shoreditch High Street", "asc": "SDCr", "lat": 51.523375, "lon": -0.075246, "naptan_ids": ["910GSHRDHST"], "lines": ["ELL"]}, "5131": {"name": "Abbey Wood", "asc": "ABWr", "lat": 51.491241, "lon": 0.121374, "naptan_ids": ["910GABWDXR"], "lines": ["EZL"]}, "3087": {"name": "Paddington NR", "asc": "PADr", "lat": 51.516222, "lon": -0.17664, "naptan_ids": ["910GPADTLL", "910GPADTON"], "lines": ["EZL"]}, "1039": {"name": "Rotherhithe", "asc": "ROEr", "lat": 51.500817, "lon": -0.052048, "naptan_ids": ["910GRTHERHI"], "lines": ["ELL"]}, "5150": {"name": "New Cross", "asc": "NWXr", "lat": 51.476344, "lon": -0.032441, "naptan_ids": ["910GNWCRELL"], "lines": ["ELL"]}, "1082": {"name": "Shadwell LO", "asc": "SDEr", "lat": 51.511284, "lon": -0.056934, "naptan_ids": ["910GSHADWEL"], "lines": ["ELL"]}, "1083": {"name": "Surrey Quays", "asc": "SQEr", "lat": 51.493196, "lon": -0.047519, "naptan_ids": ["910GSURREYQ"], "lines": ["ELL"]}, "1085": {"name": "Wapping", "asc": "WPEr", "lat": 51.504388, "lon": -0.055931, "naptan_ids": ["910GWAPPING"], "lines": ["ELL"]}, "3147": {"name": "Maidenhead", "asc": "MAIr", "lat": 51.518669, "lon": -0.72266, "naptan_ids": ["910GMDNHEAD"], "lines": ["EZL"]}, "3149": {"name": "Reading", "asc": "RDGr", "lat": 51.458786, "lon": -0.971863, "naptan_ids": ["910GRDNGSTN"], "lines": ["EZL"]}, "3151": {"name": "Taplow", "asc": "TAPr", "lat": 51.523562, "lon": -0.68137, "naptan_ids": ["910GTAPLOW"], "lines": ["EZL"]}, "3155": {"name": "Twyford", "asc": "TWYr", "lat": 51.475534, "lon": -0.863293, "naptan_ids": ["910GTWYFORD"], "lines": ["EZL"]}, "3170": {"name": "Iver", "asc": "IVRr", "lat": 51.508503, "lon": -0.506726, "naptan_ids": ["910GIVER"], "lines": ["EZL"]}, "3172": {"name": "Slough", "asc": "SLOr", "lat": 51.51188, "lon": -0.59151, "naptan_ids": ["910GSLOUGH"], "lines": ["EZL"]}, "3174": {"name": "West Drayton", "asc": "WDTr", "lat": 51.510055, "lon": -0.472234, "naptan_ids": ["910GWDRYTON"], "lines": ["EZL"]}, "3186": {"name": "Hayes & Harlington", "asc": "HAYr", "lat": 51.503096, "lon": -0.420683, "naptan_ids": ["910GHAYESAH"], "lines": ["EZL"]}, "3187": {"name": "Southall", "asc": "STLr", "lat": 51.505957, "lon": -0.37861, "naptan_ids": ["910GSTHALL"], "lines": ["EZL"]}, "3188": {"name": "West Ealing", "asc": "WEAr", "lat": 51.513506, "lon": -0.320133, "naptan_ids": ["910GWEALING"], "lines": ["EZL"]}, "3191": {"name": "Hanwell", "asc": "HANr", "lat": 51.511835, "lon": -0.338583, "naptan_ids": ["910GHANWELL"], "lines": ["EZL"]}, "5301": {"name": "Clapham High Street", "asc": "CLPr", "lat": 51.465481, "lon": -0.132522, "naptan_ids": ["910GCLPHHS"], "lines": ["ELL"]}, "5345": {"name": "New Cross Gate", "asc": "NXGr", "lat": 51.475128, "lon": -0.040399, "naptan_ids": ["910GNEWXGTE"], "lines": ["ELL"]}, "7401": {"name": "Harringay Green Lanes", "asc": "HRYr", "lat": 51.577182, "lon": -0.098144, "naptan_ids": ["910GHRGYGL"], "lines": ["GOB"]}, "7402": {"name": "Leyton Midland Road", "asc": "LEMr", "lat": 51.569725, "lon": -0.008051, "naptan_ids": ["910GLEYTNMR"], "lines": ["GOB"]}, "7403": {"name": "Leytonstone High Road", "asc": "LERr", "lat": 51.563554, "lon": 0.008416, "naptan_ids": ["910GLYTNSHR"], "lines": ["GOB"]}, "7404": {"name": "South Tottenham", "asc": "STOr", "lat": 51.580372, "lon": -0.072103, "naptan_ids": ["910GSTOTNHM"], "lines": ["GOB"]}, "5356": {"name": "Crystal Palace", "asc": "CYPr", "lat": 51.418109, "lon": -0.07261, "naptan_ids": ["910GCRYSTLP"], "lines": ["ELL"]}, "7406": {"name": "Crouch Hill", "asc": "CRHr", "lat": 51.571302, "lon": -0.117149, "naptan_ids": ["910GCROUCHH"], "lines": ["GOB"]}, "7407": {"name": "Walthamstow Queen's Road", "asc": "WMWr", "lat": 51.581503, "lon": -0.023846, "naptan_ids": ["910GWLTHQRD"], "lines": ["GOB"]}, "7408": {"name": "Wanstead Park", "asc": "WNPr", "lat": 51.551693, "lon": 0.026213, "naptan_ids": ["910GWNSTDPK"], "lines": ["GOB"]}, "5362": {"name": "Forest Hill", "asc": "FOHr", "lat": 51.43928, "lon": -0.053157, "naptan_ids": ["910GFORESTH"], "lines": ["ELL"]}, "5372": {"name": "Wandsworth Road", "asc": "WWRr", "lat": 51.470216, "lon": -0.13852, "naptan_ids": ["910GWNDSWRD"], "lines": ["ELL"]}, "5376": {"name": "Norwood Jn", "asc": "NWDr", "lat": 51.397019, "lon": -0.075221, "naptan_ids": ["910GNORWDJ"], "lines": ["ELL"]}, "5378": {"name": "Penge West", "asc": "PNWr", "lat": 51.417555, "lon": -0.06084, "naptan_ids": ["910GPENEW"], "lines": ["ELL"]}, "5397": {"name": "Anerley", "asc": "ANYr", "lat": 51.412153, "lon": -0.065886, "naptan_ids": ["910GANERLEY"], "lines": ["ELL"]}, "5404": {"name": "Brockley", "asc": "BCYr", "lat": 51.464649, "lon": -0.037537, "naptan_ids": ["910GBROCKLY"], "lines": ["ELL"]}, "5411": {"name": "West Croydon NR", "asc": "WCYr", "lat": 51.378428, "lon": -0.102585, "naptan_ids": ["910GWCROYDN"], "lines": ["ELL"]}, "5418": {"name": "Honor Oak Park", "asc": "HPAr", "lat": 51.449989, "lon": -0.045505, "naptan_ids": ["910GHONROPK"], "lines": ["ELL"]}, "7467": {"name": "Woodgrange Park", "asc": "WGRr", "lat": 51.549264, "lon": 0.044423, "naptan_ids": ["910GWDGRNPK"], "lines": ["GOB"]}, "5421": {"name": "Denmark Hill", "asc": "DMKr", "lat": 51.468203, "lon": -0.089361, "naptan_ids": ["910GDENMRKH"], "lines": ["ELL"]}, "5423": {"name": "Peckham Rye", "asc": "PMRr", "lat": 51.470034, "lon": -0.069414, "naptan_ids": ["910GPCKHMRY"], "lines": ["ELL"]}, "5424": {"name": "Queens Road Peckham", "asc": "QRPr", "lat": 51.473566, "lon": -0.057313, "naptan_ids": ["910GPCKHMQD"], "lines": ["ELL"]}, "7473": {"name": "Emerson Park", "asc": "EMPr", "lat": 51.568642, "lon": 0.220113, "naptan_ids": ["910GEMRSPKH"], "lines": ["URL"]}, "1335": {"name": "Barking Riverside", "asc": "BGVr", "lat": 51.51953, "lon": 0.11596, "naptan_ids": ["910GBARKRIV"], "lines": ["GOB"]}, "5437": {"name": "Sydenham", "asc": "SYDr", "lat": 51.427248, "lon": -0.054244, "naptan_ids": ["910GSYDENHM"], "lines": ["ELL"]}, "9586": {"name": "Imperial Wharf", "asc": "IMWr", "lat": 51.474949, "lon": -0.182823, "naptan_ids": ["910GCSEAH"], "lines": ["NLL"]}, "9587": {"name": "Shepherd's Bush NR", "asc": "SPBr", "lat": 51.505285, "lon": -0.217654, "naptan_ids": ["910GSHPDSB"], "lines": ["NLL"]}, "1395": {"name": "Bushey", "asc": "BSHr", "lat": 51.645691, "lon": -0.385612, "naptan_ids": ["910GBUSHYDC"], "lines": ["WEL"]}, "1398": {"name": "Hatch End", "asc": "HTEr", "lat": 51.609417, "lon": -0.368601, "naptan_ids": ["910GHTCHEND"], "lines": ["WEL"]}, "1402": {"name": "Watford Junction", "asc": "WFJr", "lat": 51.663529, "lon": -0.396517, "naptan_ids": ["910GWATFJDC"], "lines": ["WEL"]}, "1404": {"name": "Acton Central", "asc": "ACCr", "lat": 51.508716, "lon": -0.262971, "naptan_ids": ["910GACTNCTL"], "lines": ["NLL"]}, "1409": {"name": "Gospel Oak", "asc": "GPOr", "lat": 51.555335, "lon": -0.15077, "naptan_ids": ["910GGOSPLOK"], "lines": ["GOB", "NLL"]}, "1413": {"name": "Hampstead Heath", "asc": "HDHr", "lat": 51.55521, "lon": -0.165705, "naptan_ids": ["910GHMPSTDH"], "lines": ["NLL"]}, "1415": {"name": "Kilburn High Road", "asc": "KBNr", "lat": 51.537277, "lon": -0.192237, "naptan_ids": ["910GKLBRNHR"], "lines": ["WEL"]}, "1421": {"name": "West Hampstead LO", "asc": "WHDr", "lat": 51.547468, "lon": -0.191185, "naptan_ids": ["910GWHMDSTD"], "lines": ["NLL"]}, "1429": {"name": "Dalston Kingsland", "asc": "DLKr", "lat": 51.548148, "lon": -0.075701, "naptan_ids": ["910GDALSKLD"], "lines": ["NLL"]}, "1434": {"name": "Headstone Lane", "asc": "HDLr", "lat": 51.602649, "lon": -0.35722, "naptan_ids": ["910GHEDSTNL"], "lines": ["WEL"]}, "1437": {"name": "Brondesbury", "asc": "BSYr", "lat": 51.545166, "lon": -0.202309, "naptan_ids": ["910GBRBY"], "lines": ["NLL"]}, "1438": {"name": "Brondesbury Park", "asc": "BSPr", "lat": 51.540699, "lon": -0.210128, "naptan_ids": ["910GBRBYPK"], "lines": ["NLL"]}, "1439": {"name": "Caledonian Road & Barnsbury", "asc": "CIRr", "lat": 51.543041, "lon": -0.116729, "naptan_ids": ["910GCLDNNRB"], "lines": ["NLL"]}, "1440": {"name": "Camden Road", "asc": "CMDr", "lat": 51.541791, "lon": -0.138701, "naptan_ids": ["910GCMDNRD"], "lines": ["NLL"]}, "1441": {"name": "Canonbury", "asc": "CNNr", "lat": 51.548732, "lon": -0.092191, "naptan_ids": ["910GCNNB"], "lines": ["ELL", "NLL"]}, "1442": {"name": "Carpenders Park", "asc": "CPKr", "lat": 51.628351, "lon": -0.385939, "naptan_ids": ["910GCRPNDPK"], "lines": ["WEL"]}, "1443": {"name": "Dalston Junction", "asc": "DLJr", "lat": 51.546116, "lon": -0.075137, "naptan_ids": ["910GDALS"], "lines": ["ELL"]}, "1444": {"name": "Euston NR", "asc": "EUSr", "lat": 51.528136, "lon": -0.133924, "naptan_ids": ["910GEUSTON"], "lines": ["WEL"]}, "1445": {"name": "Finchley Road & Frognal", "asc": "FNYr", "lat": 51.550266, "lon": -0.183141, "naptan_ids": ["910GFNCHLYR"], "lines": ["NLL"]}, "1448": {"name": "Kensal Rise", "asc": "KNRr", "lat": 51.534554, "lon": -0.219957, "naptan_ids": ["910GKENR"], "lines": ["NLL"]}, "1449": {"name": "Kentish Town West", "asc": "KTWr", "lat": 51.546548, "lon": -0.146655, "naptan_ids": ["910GKNTSHTW"], "lines": ["NLL"]}, "1451": {"name": "South Hampstead", "asc": "SOHr", "lat": 51.541432, "lon": -0.178878, "naptan_ids": ["910GSHMPSTD"], "lines": ["WEL"]}, "1452": {"name": "South Acton", "asc": "SATr", "lat": 51.499695, "lon": -0.270157, "naptan_ids": ["910GSACTON"], "lines": ["NLL"]}, "1455": {"name": "Watford High Street", "asc": "WFHr", "lat": 51.652655, "lon": -0.391711, "naptan_ids": ["910GWATFDHS"], "lines": ["WEL"]}, "5595": {"name": "Clapham Junction", "asc": "CLJr", "lat": 51.464188, "lon": -0.170257, "naptan_ids": ["910GCLPHMJ1", "910GCLPHMJC"], "lines": ["ELL", "NLL"]}, "6814": {"name": "Cheshunt", "asc": "CHNr", "lat": 51.702876, "lon": -0.02396, "naptan_ids": ["910GCHESHNT"], "lines": ["WAG"]}, "1524": {"name": "Upper Holloway", "asc": "UHLr", "lat": 51.563631, "lon": -0.129513, "naptan_ids": ["910GUPRHLWY"], "lines": ["GOB"]}, "729": {"name": "Tottenham Hale LU", "asc": "TTHu", "lat": 51.588108, "lon": -0.060241, "naptan_ids": ["940GZZLUTMH"], "lines": ["VIC"]}, "735": {"name": "Turnpike Lane", "asc": "TPLu", "lat": 51.590272, "lon": -0.102953, "naptan_ids": ["940GZZLUTPN"], "lines": ["PIC"]}, "9846": {"name": "Heathrow Terminal 5 EL", "asc": "HWVr", "lat": 51.470053, "lon": -0.490589, "naptan_ids": ["910GHTRWTM5"], "lines": ["EZL"]}, "740": {"name": "Uxbridge", "asc": "UXBu", "lat": 51.546565, "lon": -0.477949, "naptan_ids": ["940GZZLUUXB"], "lines": ["MET", "PIC"]}, "742": {"name": "Walthamstow Central", "asc": "WALu", "lat": 51.582942, "lon": -0.01985, "naptan_ids": ["910GWLTWCEN", "940GZZLUWWL"], "lines": ["VIC", "WAG"]}, "745": {"name": "Warren Street", "asc": "WSTu", "lat": 51.524951, "lon": -0.138321, "naptan_ids": ["940GZZLUWRR"], "lines": ["NOR", "VIC"]}, "756": {"name": "West Finchley", "asc": "WFYu", "lat": 51.609426, "lon": -0.188362, "naptan_ids": ["940GZZLUWFN"], "lines": ["NOR"]}, "6867": {"name": "Hackney Downs", "asc": "HACr", "lat": 51.548757, "lon": -0.060819, "naptan_ids": ["910GHAKNYNM"], "lines": ["WAG"]}, "6879": {"name": "Harold Wood", "asc": "HROr", "lat": 51.592766, "lon": 0.233129, "naptan_ids": ["910GHRLDWOD"], "lines": ["EZL"]}, "6913": {"name": "Bush Hill Park", "asc": "BHKr", "lat": 51.641519, "lon": -0.069221, "naptan_ids": ["910GBHILLPK"], "lines": ["WAG"]}, "6914": {"name": "Chingford", "asc": "CHIr", "lat": 51.633087, "lon": 0.009897, "naptan_ids": ["910GCHINGFD"], "lines": ["WAG"]}}, "branches": [{"line": "BAK", "dir": "I", "branch_id": 0, "branch_name": "branch 0", "mode": "u", "mnlcs": [597, 620, 709, 659, 751, 717, 596, 766, 617, 680, 623, 637, 746, 670, 774, 641, 511, 685, 669, 674, 718, 542, 747, 628, 570], "naptan_ids": ["940GZZLUHAW", "940GZZLUKEN", "940GZZLUSKT", "940GZZLUNWY", "940GZZLUWYC", "940GZZLUSGP", "940GZZLUHSN", "940GZZLUWJN", "940GZZLUKSL", "940GZZLUQPS", "940GZZLUKPK", "940GZZLUMVL", "940GZZLUWKA", "940GZZLUPAC", "940GZZLUERB", "940GZZLUMYB", "940GZZLUBST", "940GZZLURGP", "940GZZLUOXC", "940GZZLUPCC", "940GZZLUCHX", "940GZZLUEMB", "940GZZLUWLO", "940GZZLULBN", "940GZZLUEAC"], "distances_m": [1722.2, 1409.0, 907.4, 1242.0, 1720.9, 1508.2, 1043.0, 1346.4, 1470.1, 721.1, 823.5, 737.1, 930.4, 563.7, 530.4, 425.0, 741.1, 956.0, 803.5, 538.4, 321.5, 687.5, 527.7, 939.5]}, {"line": "BAK", "dir": "O", "branch_id": 1, "branch_name": "branch 1", "mode": "u", "mnlcs": [570, 628, 747, 542, 718, 674, 669, 685, 511, 641, 774, 670, 746, 637, 623, 680, 617, 766, 596, 717, 751, 659, 709, 620, 597], "naptan_ids": ["940GZZLUEAC", "940GZZLULBN", "940GZZLUWLO", "940GZZLUEMB", "940GZZLUCHX", "940GZZLUPCC", "940GZZLUOXC", "940GZZLURGP", "940GZZLUBST", "940GZZLUMYB", "940GZZLUERB", "940GZZLUPAC", "940GZZLUWKA", "940GZZLUMVL", "940GZZLUKPK", "940GZZLUQPS", "940GZZLUKSL", "940GZZLUWJN", "940GZZLUHSN", "940GZZLUSGP", "940GZZLUWYC", "940GZZLUNWY", "940GZZLUSKT", "940GZZLUKEN", "940GZZLUHAW"], "distances_m": [939.5, 527.7, 687.5, 321.5, 538.4, 803.5, 956.0, 741.1, 425.0, 530.4, 563.7, 930.4, 737.1, 823.5, 721.1, 1470.1, 1346.4, 1043.0, 1508.2, 1720.9, 1242.0, 907.4, 1409.0, 1722.2]}, {"line": "CEN", "dir": "I", "branch_id": 2, "branch_name": "branch 0", "mode": "u", "mnlcs": [572, 725, 557, 636, 531, 769], "naptan_ids": ["940GZZLUEPG", "940GZZLUTHB", "940GZZLUDBN", "940GZZLULGN", "940GZZLUBKH", "940GZZLUWOF"], "distances_m": [2546.3, 3220.7, 2001.8, 1756.2, 2362.4]}, {"line": "CEN", "dir": "I", "branch_id": 5, "branch_name": "branch 1", "mode": "u", "mnlcs": [769, 712, 703, 633], "naptan_ids": ["940GZZLUWOF", "940GZZLUSWF", "940GZZLUSNB", "940GZZLULYS"], "distances_m": [1728.8, 1313.4, 1650.8]}, {"line": "CEN", "dir": "I", "branch_id": 6, "branch_name": "branch 2", "mode": "u", "mnlcs": [633, 632, 719, 642, 520, 634, 513, 697, 541, 607, 728, 669, 524, 640, 629, 681, 663, 608, 764, 563, 653], "naptan_ids": ["940GZZLULYS", "940GZZLULYN", "940GZZLUSTD", "940GZZLUMED", "940GZZLUBLG", "940GZZLULVT", "940GZZLUBNK", "940GZZLUSPU", "940GZZLUCHL", "940GZZLUHBN", "940GZZLUTCR", "940GZZLUOXC", "940GZZLUBND", "940GZZLUMBA", "940GZZLULGT", "940GZZLUQWY", "940GZZLUNHG", "940GZZLUHPK", "940GZZLUWCY", "940GZZLUEAN", "940GZZLUNAN"], "distances_m": [1613.0, 1650.0, 2792.9, 1530.6, 2205.9, 669.3, 557.7, 1037.4, 619.7, 699.3, 806.4, 550.7, 646.2, 1160.2, 821.9, 633.4, 698.5, 1395.3, 1670.3, 1157.4]}, {"line": "CEN", "dir": "I", "branch_id": 4, "branch_name": "branch 3", "mode": "u", "mnlcs": [653, 595, 673, 589, 657, 710, 692, 762], "naptan_ids": ["940GZZLUNAN", "940GZZLUHGR", "940GZZLUPVL", "940GZZLUGFD", "940GZZLUNHT", "940GZZLUSRP", "940GZZLURSG", "940GZZLUWRP"], "distances_m": [2396.4, 2247.3, 1687.2, 1694.3, 2298.4, 922.7, 2125.9]}, {"line": "CEN", "dir": "O", "branch_id": 8, "branch_name": "branch 4", "mode": "u", "mnlcs": [762, 692, 710, 657, 589, 673, 595, 653], "naptan_ids": ["940GZZLUWRP", "940GZZLURSG", "940GZZLUSRP", "940GZZLUNHT", "940GZZLUGFD", "940GZZLUPVL", "940GZZLUHGR", "940GZZLUNAN"], "distances_m": [2125.9, 922.7, 2298.4, 1694.3, 1687.2, 2247.3, 2396.4]}, {"line": "CEN", "dir": "O", "branch_id": 13, "branch_name": "branch 5", "mode": "u", "mnlcs": [653, 563, 764, 608, 663, 681, 629, 640, 524, 669, 728, 607, 541, 697, 513, 634, 520, 642, 719, 632, 633], "naptan_ids": ["940GZZLUNAN", "940GZZLUEAN", "940GZZLUWCY", "940GZZLUHPK", "940GZZLUNHG", "940GZZLUQWY", "940GZZLULGT", "940GZZLUMBA", "940GZZLUBND", "940GZZLUOXC", "940GZZLUTCR", "940GZZLUHBN", "940GZZLUCHL", "940GZZLUSPU", "940GZZLUBNK", "940GZZLULVT", "940GZZLUBLG", "940GZZLUMED", "940GZZLUSTD", "940GZZLULYN", "940GZZLULYS"], "distances_m": [1157.4, 1670.3, 1395.3, 698.5, 633.4, 821.9, 1160.2, 646.2, 550.7, 806.4, 699.3, 619.7, 1037.4, 557.7, 669.3, 2205.9, 1530.6, 2792.9, 1650.0, 1613.0]}, {"line": "CEN", "dir": "O", "branch_id": 11, "branch_name": "branch 6", "mode": "u", "mnlcs": [633, 703, 712, 769], "naptan_ids": ["940GZZLULYS", "940GZZLUSNB", "940GZZLUSWF", "940GZZLUWOF"], "distances_m": [1650.8, 1313.4, 1728.8]}, {"line": "CEN", "dir": "O", "branch_id": 10, "branch_name": "branch 7", "mode": "u", "mnlcs": [769, 531, 636, 557, 725, 572], "naptan_ids": ["940GZZLUWOF", "940GZZLUBKH", "940GZZLULGN", "940GZZLUDBN", "940GZZLUTHB", "940GZZLUEPG"], "distances_m": [2362.4, 1756.2, 2001.8, 3220.7, 2546.3]}, {"line": "CEN", "dir": "I", "branch_id": 1, "branch_name": "branch 8", "mode": "u", "mnlcs": [592, 576, 515, 650, 582, 684, 743, 633], "naptan_ids": ["940GZZLUHLT", "940GZZLUFLP", "940GZZLUBKE", "940GZZLUNBP", "940GZZLUGTH", "940GZZLURBG", "940GZZLUWSD", "940GZZLULYS"], "distances_m": [910.4, 1116.6, 1112.2, 1648.5, 1439.5, 1166.2, 1616.0]}, {"line": "CEN", "dir": "I", "branch_id": 0, "branch_name": "branch 9", "mode": "u", "mnlcs": [592, 587, 544, 688, 769], "naptan_ids": ["940GZZLUHLT", "940GZZLUGGH", "940GZZLUCWL", "940GZZLURVY", "940GZZLUWOF"], "distances_m": [1085.1, 1279.2, 2169.0, 1326.0]}, {"line": "CEN", "dir": "O", "branch_id": 12, "branch_name": "branch 10", "mode": "u", "mnlcs": [633, 743, 684, 582, 650, 515, 576, 592], "naptan_ids": ["940GZZLULYS", "940GZZLUWSD", "940GZZLURBG", "940GZZLUGTH", "940GZZLUNBP", "940GZZLUBKE", "940GZZLUFLP", "940GZZLUHLT"], "distances_m": [1616.0, 1166.2, 1439.5, 1648.5, 1112.2, 1116.6, 910.4]}, {"line": "CEN", "dir": "O", "branch_id": 9, "branch_name": "branch 11", "mode": "u", "mnlcs": [769, 688, 544, 587, 592], "naptan_ids": ["940GZZLUWOF", "940GZZLURVY", "940GZZLUCWL", "940GZZLUGGH", "940GZZLUHLT"], "distances_m": [1326.0, 2169.0, 1279.2, 1085.1]}, {"line": "CEN", "dir": "I", "branch_id": 3, "branch_name": "branch 12", "mode": "u", "mnlcs": [653, 753, 560], "naptan_ids": ["940GZZLUNAN", "940GZZLUWTA", "940GZZLUEBY"], "distances_m": [1591.8, 1455.2]}, {"line": "CEN", "dir": "O", "branch_id": 7, "branch_name": "branch 13", "mode": "u", "mnlcs": [560, 753, 653], "naptan_ids": ["940GZZLUEBY", "940GZZLUWTA", "940GZZLUNAN"], "distances_m": [1455.2, 1591.8]}, {"line": "CIR", "dir": "I", "branch_id": 1, "branch_name": "branch 0", "mode": "u", "mnlcs": [569, 670, 517, 663, 605, 583, 708, 702, 741, 695, 761, 542, 724, 521, 639, 536, 513, 731, 502, 634, 645, 501, 577, 625, 575, 588, 511, 569], "naptan_ids": ["940GZZLUERC", "940GZZLUPAC", "940GZZLUBWT", "940GZZLUNHG", "940GZZLUHSK", "940GZZLUGTR", "940GZZLUSKS", "940GZZLUSSQ", "940GZZLUVIC", "940GZZLUSJP", "940GZZLUWSM", "940GZZLUEMB", "940GZZLUTMP", "940GZZLUBKF", "940GZZLUMSH", "940GZZLUCST", "940GZZLUMMT", "940GZZLUTWH", "940GZZLUALD", "940GZZLULVT", "940GZZLUMGT", "940GZZLUBBN", "940GZZLUFCN", "940GZZLUKSX", "940GZZLUESQ", "940GZZLUGPS", "940GZZLUBST", "940GZZLUERC"], "distances_m": [654.5, 973.0, 665.2, 926.5, 1026.5, 590.3, 1246.2, 1025.3, 746.6, 636.9, 655.9, 728.8, 736.4, 670.5, 256.6, 321.7, 657.1, 479.0, 624.2, 366.7, 708.7, 478.8, 1714.5, 1039.4, 615.5, 896.6, 813.3]}, {"line": "CIR", "dir": "I", "branch_id": 0, "branch_name": "branch 1", "mode": "u", "mnlcs": [569, 690, 754, 627, 630, 599, 775, 585, 773], "naptan_ids": ["940GZZLUERC", "940GZZLURYO", "940GZZLUWSP", "940GZZLULAD", "940GZZLULRD", "940GZZLUWLA", "940GZZLUSBM", "940GZZLUGHK", "940GZZLUHSC"], "distances_m": [1449.6, 880.7, 763.0, 683.1, 623.0, 472.4, 398.1, 965.0]}, {"line": "CIR", "dir": "O", "branch_id": 2, "branch_name": "branch 2", "mode": "u", "mnlcs": [773, 585, 775, 599, 630, 627, 754, 690, 569], "naptan_ids": ["940GZZLUHSC", "940GZZLUGHK", "940GZZLUSBM", "940GZZLUWLA", "940GZZLULRD", "940GZZLULAD", "940GZZLUWSP", "940GZZLURYO", "940GZZLUERC"], "distances_m": [965.0, 398.1, 472.4, 623.0, 683.1, 763.0, 880.7, 1449.6]}, {"line": "CIR", "dir": "O", "branch_id": 3, "branch_name": "branch 3", "mode": "u", "mnlcs": [569, 511, 588, 575, 625, 577, 501, 645, 634, 502, 731, 513, 536, 639, 521, 724, 542, 761, 695, 741, 702, 708, 583, 605, 663, 517, 670, 569], "naptan_ids": ["940GZZLUERC", "940GZZLUBST", "940GZZLUGPS", "940GZZLUESQ", "940GZZLUKSX", "940GZZLUFCN", "940GZZLUBBN", "940GZZLUMGT", "940GZZLULVT", "940GZZLUALD", "940GZZLUTWH", "940GZZLUMMT", "940GZZLUCST", "940GZZLUMSH", "940GZZLUBKF", "940GZZLUTMP", "940GZZLUEMB", "940GZZLUWSM", "940GZZLUSJP", "940GZZLUVIC", "940GZZLUSSQ", "940GZZLUSKS", "940GZZLUGTR", "940GZZLUHSK", "940GZZLUNHG", "940GZZLUBWT", "940GZZLUPAC", "940GZZLUERC"], "distances_m": [813.3, 896.6, 615.5, 1039.4, 1714.5, 478.8, 708.7, 366.7, 624.2, 479.0, 657.1, 321.7, 256.6, 670.5, 736.4, 728.8, 655.9, 636.9, 746.6, 1025.3, 1246.2, 590.3, 1026.5, 926.5, 665.2, 973.0, 654.5]}, {"line": "DIS", "dir": "I", "branch_id": 1, "branch_name": "branch 0", "mode": "u", "mnlcs": [736, 737, 610, 571, 555, 556, 518, 738, 514, 566, 739, 676, 757, 530, 528, 642, 715, 763, 503, 731, 513, 536, 639, 521, 724, 542, 761, 695, 741, 702, 708, 583, 562], "naptan_ids": ["940GZZLUUPM", "940GZZLUUPB", "940GZZLUHCH", "940GZZLUEPK", "940GZZLUDGE", "940GZZLUDGY", "940GZZLUBEC", "940GZZLUUPY", "940GZZLUBKG", "940GZZLUEHM", "940GZZLUUPK", "940GZZLUPLW", "940GZZLUWHM", "940GZZLUBBB", "940GZZLUBWR", "940GZZLUMED", "940GZZLUSGN", "940GZZLUWPL", "940GZZLUADE", "940GZZLUTWH", "940GZZLUMMT", "940GZZLUCST", "940GZZLUMSH", "940GZZLUBKF", "940GZZLUTMP", "940GZZLUEMB", "940GZZLUWSM", "940GZZLUSJP", "940GZZLUVIC", "940GZZLUSSQ", "940GZZLUSKS", "940GZZLUGTR", "940GZZLUECT"], "distances_m": [1043.5, 1256.4, 1494.9, 2342.6, 1307.5, 1425.9, 1776.0, 1420.1, 2066.0, 1172.1, 1309.8, 928.6, 1205.0, 968.8, 622.6, 967.0, 961.3, 993.0, 632.7, 657.1, 321.7, 256.6, 670.5, 736.4, 728.8, 655.9, 636.9, 746.6, 1025.3, 1246.2, 590.3, 783.3]}, {"line": "DIS", "dir": "I", "branch_id": 3, "branch_name": "branch 1", "mode": "u", "mnlcs": [562, 760, 516, 593, 682, 713, 734], "naptan_ids": ["940GZZLUECT", "940GZZLUWKN", "940GZZLUBSC", "940GZZLUHSD", "940GZZLURVP", "940GZZLUSFB", "940GZZLUTNG"], "distances_m": [935.1, 470.5, 739.5, 872.7, 685.8, 613.3]}, {"line": "DIS", "dir": "I", "branch_id": 6, "branch_name": "branch 2", "mode": "u", "mnlcs": [734, 545, 500, 561, 560], "naptan_ids": ["940GZZLUTNG", "940GZZLUCWP", "940GZZLUACT", "940GZZLUECM", "940GZZLUEBY"], "distances_m": [930.6, 1275.2, 955.0, 1061.8]}, {"line": "DIS", "dir": "O", "branch_id": 10, "branch_name": "branch 3", "mode": "u", "mnlcs": [560, 561, 500, 545, 734], "naptan_ids": ["940GZZLUEBY", "940GZZLUECM", "940GZZLUACT", "940GZZLUCWP", "940GZZLUTNG"], "distances_m": [1061.8, 955.0, 1275.2, 930.6]}, {"line": "DIS", "dir": "O", "branch_id": 13, "branch_name": "branch 4", "mode": "u", "mnlcs": [734, 713, 682, 593, 516, 760, 562], "naptan_ids": ["940GZZLUTNG", "940GZZLUSFB", "940GZZLURVP", "940GZZLUHSD", "940GZZLUBSC", "940GZZLUWKN", "940GZZLUECT"], "distances_m": [613.3, 685.8, 872.7, 739.5, 470.5, 935.1]}, {"line": "DIS", "dir": "O", "branch_id": 12, "branch_name": "branch 5", "mode": "u", "mnlcs": [562, 583, 708, 702, 741, 695, 761, 542, 724, 521, 639, 536, 513, 731, 503, 763, 715, 642, 528, 530, 757, 676, 739, 566, 514, 738, 518, 556, 555, 571, 610, 737, 736], "naptan_ids": ["940GZZLUECT", "940GZZLUGTR", "940GZZLUSKS", "940GZZLUSSQ", "940GZZLUVIC", "940GZZLUSJP", "940GZZLUWSM", "940GZZLUEMB", "940GZZLUTMP", "940GZZLUBKF", "940GZZLUMSH", "940GZZLUCST", "940GZZLUMMT", "940GZZLUTWH", "940GZZLUADE", "940GZZLUWPL", "940GZZLUSGN", "940GZZLUMED", "940GZZLUBWR", "940GZZLUBBB", "940GZZLUWHM", "940GZZLUPLW", "940GZZLUUPK", "940GZZLUEHM", "940GZZLUBKG", "940GZZLUUPY", "940GZZLUBEC", "940GZZLUDGY", "940GZZLUDGE", "940GZZLUEPK", "940GZZLUHCH", "940GZZLUUPB", "940GZZLUUPM"], "distances_m": [783.3, 590.3, 1246.2, 1025.3, 746.6, 636.9, 655.9, 728.8, 736.4, 670.5, 256.6, 321.7, 657.1, 632.7, 993.0, 961.3, 967.0, 622.6, 968.8, 1205.0, 928.6, 1309.8, 1172.1, 2066.0, 1420.1, 1776.0, 1425.9, 1307.5, 2342.6, 1494.9, 1256.4, 1043.5]}, {"line": "DIS", "dir": "I", "branch_id": 5, "branch_name": "branch 6", "mode": "u", "mnlcs": [734, 591, 621, 686], "naptan_ids": ["940GZZLUTNG", "940GZZLUGBY", "940GZZLUKWG", "940GZZLURMD"], "distances_m": [1481.4, 1779.1, 1898.6]}, {"line": "DIS", "dir": "O", "branch_id": 8, "branch_name": "branch 7", "mode": "u", "mnlcs": [686, 621, 591, 734], "naptan_ids": ["940GZZLURMD", "940GZZLUKWG", "940GZZLUGBY", "940GZZLUTNG"], "distances_m": [1898.6, 1779.1, 1481.4]}, {"line": "DIS", "dir": "I", "branch_id": 4, "branch_name": "branch 8", "mode": "u", "mnlcs": [562, 755, 581, 672, 678, 567, 705, 768, 767], "naptan_ids": ["940GZZLUECT", "940GZZLUWBN", "940GZZLUFBY", "940GZZLUPSG", "940GZZLUPYB", "940GZZLUEPY", "940GZZLUSFS", "940GZZLUWIP", "940GZZLUWIM"], "distances_m": [554.9, 799.3, 666.2, 939.5, 1019.3, 1600.7, 1261.3, 1560.3]}, {"line": "DIS", "dir": "O", "branch_id": 9, "branch_name": "branch 9", "mode": "u", "mnlcs": [767, 768, 705, 567, 678, 672, 581, 755, 562], "naptan_ids": ["940GZZLUWIM", "940GZZLUWIP", "940GZZLUSFS", "940GZZLUEPY", "940GZZLUPYB", "940GZZLUPSG", "940GZZLUFBY", "940GZZLUWBN", "940GZZLUECT"], "distances_m": [1560.3, 1261.3, 1600.7, 1019.3, 939.5, 666.2, 799.3, 554.9]}, {"line": "DIS", "dir": "I", "branch_id": 0, "branch_name": "branch 10", "mode": "u", "mnlcs": [569, 670, 517, 663, 605, 562], "naptan_ids": ["940GZZLUERC", "940GZZLUPAC", "940GZZLUBWT", "940GZZLUNHG", "940GZZLUHSK", "940GZZLUECT"], "distances_m": [654.5, 973.0, 665.2, 926.5, 1000.7]}, {"line": "DIS", "dir": "O", "branch_id": 11, "branch_name": "branch 11", "mode": "u", "mnlcs": [562, 605, 663, 517, 670, 569], "naptan_ids": ["940GZZLUECT", "940GZZLUHSK", "940GZZLUNHG", "940GZZLUBWT", "940GZZLUPAC", "940GZZLUERC"], "distances_m": [1000.7, 926.5, 665.2, 973.0, 654.5]}, {"line": "DIS", "dir": "I", "branch_id": 2, "branch_name": "branch 12", "mode": "u", "mnlcs": [562, 618], "naptan_ids": ["940GZZLUECT", "940GZZLUKOY"], "distances_m": [1307.2]}, {"line": "DIS", "dir": "O", "branch_id": 7, "branch_name": "branch 13", "mode": "u", "mnlcs": [618, 562], "naptan_ids": ["940GZZLUKOY", "940GZZLUECT"], "distances_m": [1307.2]}, {"line": "DLR", "dir": "I", "branch_id": 2, "branch_name": "branch 0", "mode": "u", "mnlcs": [940, 898, 897, 928, 879, 856, 857, 854, 861, 855, 842, 866], "naptan_ids": ["940GZZDLLEW", "940GZZDLELV", "940GZZDLDEP", "940GZZDLGRE", "940GZZDLCUT", "940GZZDLISL", "940GZZDLMUD", "940GZZDLCLA", "940GZZDLSOQ", "940GZZDLHEQ", "940GZZDLCAN", "940GZZDLWIQ"], "distances_m": [558.2, 695.1, 744.2, 445.1, 684.3, 452.6, 558.7, 489.8, 528.3, 164.9, 248.3]}, {"line": "DLR", "dir": "I", "branch_id": 3, "branch_name": "branch 1", "mode": "u", "mnlcs": [866, 858], "naptan_ids": ["940GZZDLWIQ", "940GZZDLPOP"], "distances_m": [217.6]}, {"line": "DLR", "dir": "I", "branch_id": 5, "branch_name": "branch 2", "mode": "u", "mnlcs": [858, 850, 853, 867, 851, 859, 719], "naptan_ids": ["940GZZDLPOP", "940GZZDLALL", "940GZZDLLDP", "940GZZDLDEV", "940GZZDLBOW", "940GZZDLPUD", "940GZZDLSTD"], "distances_m": [466.4, 469.2, 867.2, 621.3, 913.1, 1056.5]}, {"line": "DLR", "dir": "I", "branch_id": 4, "branch_name": "branch 3", "mode": "u", "mnlcs": [866, 865], "naptan_ids": ["940GZZDLWIQ", "940GZZDLWFE"], "distances_m": [519.5]}, {"line": "DLR", "dir": "I", "branch_id": 12, "branch_name": "branch 4", "mode": "u", "mnlcs": [865, 862, 860], "naptan_ids": ["940GZZDLWFE", "940GZZDLLIM", "940GZZDLSHA"], "distances_m": [961.9, 1167.5]}, {"line": "DLR", "dir": "I", "branch_id": 9, "branch_name": "branch 5", "mode": "u", "mnlcs": [860, 513], "naptan_ids": ["940GZZDLSHA", "940GZZDLBNK"], "distances_m": [2212.2]}, {"line": "DLR", "dir": "I", "branch_id": 10, "branch_name": "branch 6", "mode": "u", "mnlcs": [860, 864], "naptan_ids": ["940GZZDLSHA", "940GZZDLTWG"], "distances_m": [1263.5]}, {"line": "DLR", "dir": "I", "branch_id": 1, "branch_name": "branch 7", "mode": "u", "mnlcs": [895, 894, 893, 891, 890, 888, 887, 886, 884], "naptan_ids": ["940GZZDLBEC", "940GZZDLGAL", "940GZZDLCYP", "940GZZDLBPK", "940GZZDLRAL", "940GZZDLPRE", "940GZZDLCUS", "940GZZDLRVC", "940GZZDLCGT"], "distances_m": [923.1, 530.6, 623.4, 624.5, 821.3, 518.7, 569.2, 895.2]}, {"line": "DLR", "dir": "I", "branch_id": 8, "branch_name": "branch 8", "mode": "u", "mnlcs": [884, 883, 882, 858], "naptan_ids": ["940GZZDLCGT", "940GZZDLEIN", "940GZZDLBLA", "940GZZDLPOP"], "distances_m": [895.4, 355.5, 721.3]}, {"line": "DLR", "dir": "I", "branch_id": 6, "branch_name": "branch 9", "mode": "u", "mnlcs": [858, 865], "naptan_ids": ["940GZZDLPOP", "940GZZDLWFE"], "distances_m": [674.8]}, {"line": "DLR", "dir": "O", "branch_id": 16, "branch_name": "branch 10", "mode": "u", "mnlcs": [864, 860], "naptan_ids": ["940GZZDLTWG", "940GZZDLSHA"], "distances_m": [1263.5]}, {"line": "DLR", "dir": "O", "branch_id": 25, "branch_name": "branch 11", "mode": "u", "mnlcs": [860, 862, 865], "naptan_ids": ["940GZZDLSHA", "940GZZDLLIM", "940GZZDLWFE"], "distances_m": [1167.5, 961.9]}, {"line": "DLR", "dir": "O", "branch_id": 22, "branch_name": "branch 12", "mode": "u", "mnlcs": [865, 858], "naptan_ids": ["940GZZDLWFE", "940GZZDLPOP"], "distances_m": [674.8]}, {"line": "DLR", "dir": "O", "branch_id": 19, "branch_name": "branch 13", "mode": "u", "mnlcs": [858, 882, 883, 884], "naptan_ids": ["940GZZDLPOP", "940GZZDLBLA", "940GZZDLEIN", "940GZZDLCGT"], "distances_m": [721.3, 355.5, 895.4]}, {"line": "DLR", "dir": "O", "branch_id": 21, "branch_name": "branch 14", "mode": "u", "mnlcs": [884, 886, 887, 888, 890, 891, 893, 894, 895], "naptan_ids": ["940GZZDLCGT", "940GZZDLRVC", "940GZZDLCUS", "940GZZDLPRE", "940GZZDLRAL", "940GZZDLBPK", "940GZZDLCYP", "940GZZDLGAL", "940GZZDLBEC"], "distances_m": [895.2, 569.2, 518.7, 821.3, 624.5, 623.4, 530.6, 923.1]}, {"line": "DLR", "dir": "O", "branch_id": 23, "branch_name": "branch 15", "mode": "u", "mnlcs": [865, 842], "naptan_ids": ["940GZZDLWFE", "940GZZDLCAN"], "distances_m": [647.6]}, {"line": "DLR", "dir": "O", "branch_id": 24, "branch_name": "branch 16", "mode": "u", "mnlcs": [842, 855, 861, 854, 857, 856, 879, 928, 897, 898, 940], "naptan_ids": ["940GZZDLCAN", "940GZZDLHEQ", "940GZZDLSOQ", "940GZZDLCLA", "940GZZDLMUD", "940GZZDLISL", "940GZZDLCUT", "940GZZDLGRE", "940GZZDLDEP", "940GZZDLELV", "940GZZDLLEW"], "distances_m": [164.9, 528.3, 489.8, 558.7, 452.6, 684.3, 445.1, 744.2, 695.1, 558.2]}, {"line": "DLR", "dir": "O", "branch_id": 15, "branch_name": "branch 17", "mode": "u", "mnlcs": [513, 860], "naptan_ids": ["940GZZDLBNK", "940GZZDLSHA"], "distances_m": [2212.2]}, {"line": "DLR", "dir": "I", "branch_id": 0, "branch_name": "branch 18", "mode": "u", "mnlcs": [573, 523, 533, 538, 559, 884], "naptan_ids": ["940GZZDLWLA", "940GZZDLKGV", "940GZZDLLCA", "940GZZDLPDK", "940GZZDLWSV", "940GZZDLCGT"], "distances_m": [1407.6, 973.8, 1158.4, 671.9, 1601.0]}, {"line": "DLR", "dir": "O", "branch_id": 20, "branch_name": "branch 19", "mode": "u", "mnlcs": [884, 559, 538, 533, 523, 573], "naptan_ids": ["940GZZDLCGT", "940GZZDLWSV", "940GZZDLPDK", "940GZZDLLCA", "940GZZDLKGV", "940GZZDLWLA"], "distances_m": [1601.0, 671.9, 1158.4, 973.8, 1407.6]}, {"line": "DLR", "dir": "I", "branch_id": 7, "branch_name": "branch 20", "mode": "u", "mnlcs": [884, 889, 757, 750, 749, 719], "naptan_ids": ["940GZZDLCGT", "940GZZDLSTL", "940GZZDLWHM", "940GZZDLABR", "940GZZDLSHS", "940GZZDLSTD"], "distances_m": [789.2, 790.7, 451.3, 772.7, 424.5]}, {"line": "DLR", "dir": "I", "branch_id": 11, "branch_name": "branch 21", "mode": "u", "mnlcs": [719, 504], "naptan_ids": ["940GZZDLSTD", "940GZZDLSIT"], "distances_m": [587.3]}, {"line": "DLR", "dir": "O", "branch_id": 14, "branch_name": "branch 22", "mode": "u", "mnlcs": [504, 719], "naptan_ids": ["940GZZDLSIT", "940GZZDLSTD"], "distances_m": [587.3]}, {"line": "DLR", "dir": "O", "branch_id": 17, "branch_name": "branch 23", "mode": "u", "mnlcs": [719, 749, 750, 757, 889, 884], "naptan_ids": ["940GZZDLSTD", "940GZZDLSHS", "940GZZDLABR", "940GZZDLWHM", "940GZZDLSTL", "940GZZDLCGT"], "distances_m": [424.5, 772.7, 451.3, 790.7, 789.2]}, {"line": "DLR", "dir": "O", "branch_id": 13, "branch_name": "branch 24", "mode": "u", "mnlcs": [719, 859, 851, 867, 853, 850, 858], "naptan_ids": ["940GZZDLSTD", "940GZZDLPUD", "940GZZDLBOW", "940GZZDLDEV", "940GZZDLLDP", "940GZZDLALL", "940GZZDLPOP"], "distances_m": [1056.5, 913.1, 621.3, 867.2, 469.2, 466.4]}, {"line": "DLR", "dir": "O", "branch_id": 18, "branch_name": "branch 25", "mode": "u", "mnlcs": [858, 866, 842], "naptan_ids": ["940GZZDLPOP", "940GZZDLWIQ", "940GZZDLCAN"], "distances_m": [217.6, 248.3]}, {"line": "EZL", "dir": "I", "branch_id": 0, "branch_name": "branch 0", "mode": "u", "mnlcs": [7091, 7090], "naptan_ids": ["910GHTRWTM4", "910GHTRWAPT"], "distances_m": [1656.6]}, {"line": "EZL", "dir": "I", "branch_id": 9, "branch_name": "branch 1", "mode": "u", "mnlcs": [7090, 3186], "naptan_ids": ["910GHTRWAPT", "910GHAYESAH"], "distances_m": [4188.3]}, {"line": "EZL", "dir": "I", "branch_id": 10, "branch_name": "branch 2", "mode": "u", "mnlcs": [3186, 3187, 3191, 3188, 560, 3000], "naptan_ids": ["910GHAYESAH", "910GSTHALL", "910GHANWELL", "910GWEALING", "910GEALINGB", "910GACTONML"], "distances_m": [2929.3, 2846.2, 1290.2, 1280.6, 2435.5]}, {"line": "EZL", "dir": "I", "branch_id": 6, "branch_name": "branch 3", "mode": "u", "mnlcs": [3000, 3087], "naptan_ids": ["910GACTONML", "910GPADTLL"], "distances_m": [6203.8]}, {"line": "EZL", "dir": "I", "branch_id": 2, "branch_name": "branch 4", "mode": "u", "mnlcs": [3087, 524, 728, 577, 6965, 763], "naptan_ids": ["910GPADTLL", "910GBONDST", "910GTOTCTRD", "910GFRNDXR", "910GLIVSTLL", "910GWCHAPXR"], "distances_m": [1933.7, 1338.8, 1835.4, 1606.2, 1523.9]}, {"line": "EZL", "dir": "I", "branch_id": 7, "branch_name": "branch 5", "mode": "u", "mnlcs": [763, 719], "naptan_ids": ["910GWCHAPXR", "910GSTFD"], "distances_m": [4655.6]}, {"line": "EZL", "dir": "I", "branch_id": 11, "branch_name": "branch 6", "mode": "u", "mnlcs": [719, 6970, 6876, 6883, 6881, 6893, 6878, 6874, 6886, 6877, 6879, 6872, 6888], "naptan_ids": ["910GSTFD", "910GMRYLAND", "910GFRSTGT", "910GMANRPK", "910GILFORD", "910GSVNKNGS", "910GGODMAYS", "910GCHDWLHT", "910GROMFORD", "910GGIDEAPK", "910GHRLDWOD", "910GBRTWOOD", "910GSHENFLD"], "distances_m": [789.0, 1334.9, 1557.6, 1774.4, 1972.5, 963.1, 1284.1, 3826.6, 1756.5, 2231.8, 5141.5, 2837.9]}, {"line": "EZL", "dir": "I", "branch_id": 1, "branch_name": "branch 7", "mode": "u", "mnlcs": [9846, 7090], "naptan_ids": ["910GHTRWTM5", "910GHTRWAPT"], "distances_m": [2489.0]}, {"line": "EZL", "dir": "O", "branch_id": 12, "branch_name": "branch 8", "mode": "u", "mnlcs": [6888, 6872, 6879, 6877, 6886, 6874, 6878, 6893, 6881, 6883, 6876, 6970, 719], "naptan_ids": ["910GSHENFLD", "910GBRTWOOD", "910GHRLDWOD", "910GGIDEAPK", "910GROMFORD", "910GCHDWLHT", "910GGODMAYS", "910GSVNKNGS", "910GILFORD", "910GMANRPK", "910GFRSTGT", "910GMRYLAND", "910GSTFD"], "distances_m": [2837.9, 5141.5, 2231.8, 1756.5, 3826.6, 1284.1, 963.1, 1972.5, 1774.4, 1557.6, 1334.9, 789.0]}, {"line": "EZL", "dir": "O", "branch_id": 15, "branch_name": "branch 9", "mode": "u", "mnlcs": [719, 763], "naptan_ids": ["910GSTFD", "910GWCHAPXR"], "distances_m": [4655.6]}, {"line": "EZL", "dir": "O", "branch_id": 22, "branch_name": "branch 10", "mode": "u", "mnlcs": [763, 6965, 577, 728, 524, 3087], "naptan_ids": ["910GWCHAPXR", "910GLIVSTLL", "910GFRNDXR", "910GTOTCTRD", "910GBONDST", "910GPADTLL"], "distances_m": [1523.9, 1606.2, 1835.4, 1338.8, 1933.7]}, {"line": "EZL", "dir": "O", "branch_id": 17, "branch_name": "branch 11", "mode": "u", "mnlcs": [3087, 3000], "naptan_ids": ["910GPADTLL", "910GACTONML"], "distances_m": [6203.8]}, {"line": "EZL", "dir": "O", "branch_id": 23, "branch_name": "branch 12", "mode": "u", "mnlcs": [3000, 560, 3188, 3191, 3187, 3186], "naptan_ids": ["910GACTONML", "910GEALINGB", "910GWEALING", "910GHANWELL", "910GSTHALL", "910GHAYESAH"], "distances_m": [2435.5, 1280.6, 1290.2, 2846.2, 2929.3]}, {"line": "EZL", "dir": "O", "branch_id": 18, "branch_name": "branch 13", "mode": "u", "mnlcs": [3186, 7090], "naptan_ids": ["910GHAYESAH", "910GHTRWAPT"], "distances_m": [4188.3]}, {"line": "EZL", "dir": "O", "branch_id": 20, "branch_name": "branch 14", "mode": "u", "mnlcs": [7090, 7091], "naptan_ids": ["910GHTRWAPT", "910GHTRWTM4"], "distances_m": [1656.6]}, {"line": "EZL", "dir": "O", "branch_id": 21, "branch_name": "branch 15", "mode": "u", "mnlcs": [7090, 9846], "naptan_ids": ["910GHTRWAPT", "910GHTRWTM5"], "distances_m": [2489.0]}, {"line": "EZL", "dir": "I", "branch_id": 8, "branch_name": "branch 16", "mode": "u", "mnlcs": [763, 6560, 6561, 6562, 5131], "naptan_ids": ["910GWCHAPXR", "910GCANWHRF", "910GCUSTMHS", "910GWOLWXR", "910GABWDXR"], "distances_m": [3217.7, 3178.2, 3612.3, 3517.2]}, {"line": "EZL", "dir": "I", "branch_id": 3, "branch_name": "branch 17", "mode": "u", "mnlcs": [3149, 3155, 3147, 3151, 3172, 3170, 3174, 3186], "naptan_ids": ["910GRDNGSTN", "910GTWYFORD", "910GMDNHEAD", "910GTAPLOW", "910GSLOUGH", "910GIVER", "910GWDRYTON", "910GHAYESAH"], "distances_m": [7747.8, 10852.7, 2908.1, 6352.0, 5879.5, 2393.3, 3650.8]}, {"line": "EZL", "dir": "O", "branch_id": 19, "branch_name": "branch 18", "mode": "u", "mnlcs": [3186, 3174, 3170, 3172, 3151, 3147, 3155, 3149], "naptan_ids": ["910GHAYESAH", "910GWDRYTON", "910GIVER", "910GSLOUGH", "910GTAPLOW", "910GMDNHEAD", "910GTWYFORD", "910GRDNGSTN"], "distances_m": [3650.8, 2393.3, 5879.5, 6352.0, 2908.1, 10852.7, 7747.8]}, {"line": "EZL", "dir": "O", "branch_id": 14, "branch_name": "branch 19", "mode": "u", "mnlcs": [5131, 6562, 6561, 6560, 763], "naptan_ids": ["910GABWDXR", "910GWOLWXR", "910GCUSTMHS", "910GCANWHRF", "910GWCHAPXR"], "distances_m": [3517.2, 3612.3, 3178.2, 3217.7]}, {"line": "EZL", "dir": "I", "branch_id": 5, "branch_name": "branch 20", "mode": "u", "mnlcs": [3000, 3087], "naptan_ids": ["910GACTONML", "910GPADTON"], "distances_m": [6269.2]}, {"line": "EZL", "dir": "O", "branch_id": 13, "branch_name": "branch 21", "mode": "u", "mnlcs": [3087, 3000], "naptan_ids": ["910GPADTON", "910GACTONML"], "distances_m": [6269.2]}, {"line": "EZL", "dir": "I", "branch_id": 4, "branch_name": "branch 22", "mode": "u", "mnlcs": [6965, 719], "naptan_ids": ["910GLIVST", "910GSTFD"], "distances_m": [6016.6]}, {"line": "EZL", "dir": "O", "branch_id": 16, "branch_name": "branch 23", "mode": "u", "mnlcs": [719, 6965], "naptan_ids": ["910GSTFD", "910GLIVST"], "distances_m": [6016.6]}, {"line": "HAM", "dir": "I", "branch_id": 0, "branch_name": "branch 0", "mode": "u", "mnlcs": [514, 566, 739, 676, 757, 530, 528, 642, 715, 763, 503, 634, 645, 501, 577, 625, 575, 588, 511, 569, 690, 754, 627, 630, 599, 775, 585, 773], "naptan_ids": ["940GZZLUBKG", "940GZZLUEHM", "940GZZLUUPK", "940GZZLUPLW", "940GZZLUWHM", "940GZZLUBBB", "940GZZLUBWR", "940GZZLUMED", "940GZZLUSGN", "940GZZLUWPL", "940GZZLUADE", "940GZZLULVT", "940GZZLUMGT", "940GZZLUBBN", "940GZZLUFCN", "940GZZLUKSX", "940GZZLUESQ", "940GZZLUGPS", "940GZZLUBST", "940GZZLUERC", "940GZZLURYO", "940GZZLUWSP", "940GZZLULAD", "940GZZLULRD", "940GZZLUWLA", "940GZZLUSBM", "940GZZLUGHK", "940GZZLUHSC"], "distances_m": [2066.0, 1172.1, 1309.8, 928.6, 1205.0, 968.8, 622.6, 967.0, 961.3, 993.0, 791.0, 366.7, 708.7, 478.8, 1714.5, 1039.4, 615.5, 896.6, 813.3, 1449.6, 880.7, 763.0, 683.1, 623.0, 472.4, 398.1, 965.0]}, {"line": "HAM", "dir": "O", "branch_id": 1, "branch_name": "branch 1", "mode": "u", "mnlcs": [773, 585, 775, 599, 630, 627, 754, 690, 569, 511, 588, 575, 625, 577, 501, 645, 634, 503, 763, 715, 642, 528, 530, 757, 676, 739, 566, 514], "naptan_ids": ["940GZZLUHSC", "940GZZLUGHK", "940GZZLUSBM", "940GZZLUWLA", "940GZZLULRD", "940GZZLULAD", "940GZZLUWSP", "940GZZLURYO", "940GZZLUERC", "940GZZLUBST", "940GZZLUGPS", "940GZZLUESQ", "940GZZLUKSX", "940GZZLUFCN", "940GZZLUBBN", "940GZZLUMGT", "940GZZLULVT", "940GZZLUADE", "940GZZLUWPL", "940GZZLUSGN", "940GZZLUMED", "940GZZLUBWR", "940GZZLUBBB", "940GZZLUWHM", "940GZZLUPLW", "940GZZLUUPK", "940GZZLUEHM", "940GZZLUBKG"], "distances_m": [965.0, 398.1, 472.4, 623.0, 683.1, 763.0, 880.7, 1449.6, 813.3, 896.6, 615.5, 1039.4, 1714.5, 478.8, 708.7, 366.7, 791.0, 993.0, 961.3, 967.0, 622.6, 968.8, 1205.0, 928.6, 1309.8, 1172.1, 2066.0]}, {"line": "JUB", "dir": "I", "branch_id": 0, "branch_name": "branch 0", "mode": "u", "mnlcs": [719, 757, 884, 789, 852, 788, 787, 635, 784, 747, 761, 590, 524, 511, 696, 723, 579, 758, 622, 765, 558, 649, 752, 624, 679, 537, 714], "naptan_ids": ["940GZZLUSTD", "940GZZLUWHM", "940GZZLUCGT", "940GZZLUNGW", "940GZZLUCYF", "940GZZLUCWR", "940GZZLUBMY", "940GZZLULNB", "940GZZLUSWK", "940GZZLUWLO", "940GZZLUWSM", "940GZZLUGPK", "940GZZLUBND", "940GZZLUBST", "940GZZLUSJW", "940GZZLUSWC", "940GZZLUFYR", "940GZZLUWHP", "940GZZLUKBN", "940GZZLUWIG", "940GZZLUDOH", "940GZZLUNDN", "940GZZLUWYP", "940GZZLUKBY", "940GZZLUQBY", "940GZZLUCPK", "940GZZLUSTM"], "distances_m": [1630.1, 1633.8, 1484.7, 1595.4, 2243.6, 1010.0, 1936.8, 1150.5, 662.9, 731.7, 1389.6, 948.5, 1082.9, 1740.2, 1020.6, 489.3, 775.7, 914.0, 1215.3, 1251.8, 778.1, 2277.5, 2407.3, 1158.8, 1612.5, 1473.8]}, {"line": "JUB", "dir": "O", "branch_id": 1, "branch_name": "branch 1", "mode": "u", "mnlcs": [714, 537, 679, 624, 752, 649, 558, 765, 622, 758, 579, 723, 696, 511, 524, 590, 761, 747, 784, 635, 787, 788, 852, 789, 884, 757, 719], "naptan_ids": ["940GZZLUSTM", "940GZZLUCPK", "940GZZLUQBY", "940GZZLUKBY", "940GZZLUWYP", "940GZZLUNDN", "940GZZLUDOH", "940GZZLUWIG", "940GZZLUKBN", "940GZZLUWHP", "940GZZLUFYR", "940GZZLUSWC", "940GZZLUSJW", "940GZZLUBST", "940GZZLUBND", "940GZZLUGPK", "940GZZLUWSM", "940GZZLUWLO", "940GZZLUSWK", "940GZZLULNB", "940GZZLUBMY", "940GZZLUCWR", "940GZZLUCYF", "940GZZLUNGW", "940GZZLUCGT", "940GZZLUWHM", "940GZZLUSTD"], "distances_m": [1473.8, 1612.5, 1158.8, 2407.3, 2277.5, 778.1, 1251.8, 1215.3, 914.0, 775.7, 489.3, 1020.6, 1740.2, 1082.9, 948.5, 1389.6, 731.7, 662.9, 1150.5, 1936.8, 1010.0, 2243.6, 1595.4, 1484.7, 1633.8, 1630.1]}, {"line": "URL", "dir": "I", "branch_id": 0, "branch_name": "branch 0", "mode": "u", "mnlcs": [736, 7473, 6886], "naptan_ids": ["910GUPMNSTR", "910GEMRSPKH", "910GROMFORD"], "distances_m": [2380.8, 2639.8]}, {"line": "URL", "dir": "O", "branch_id": 1, "branch_name": "branch 1", "mode": "u", "mnlcs": [6886, 7473, 736], "naptan_ids": ["910GROMFORD", "910GEMRSPKH", "910GUPMNSTR"], "distances_m": [2639.8, 2380.8]}, {"line": "WEL", "dir": "I", "branch_id": 0, "branch_name": "branch 0", "mode": "u", "mnlcs": [1402, 1455, 1395, 1442, 1398, 1434, 597, 620, 709, 659, 751, 717, 596, 766, 617, 680, 1415, 1451, 1444], "naptan_ids": ["910GWATFJDC", "910GWATFDHS", "910GBUSHYDC", "910GCRPNDPK", "910GHTCHEND", "910GHEDSTNL", "910GHROW", "910GKTON", "910GSKENTON", "910GNWEMBLY", "910GWMBY", "910GSTNBGPK", "910GHARLSDN", "910GWLSDJHL", "910GKENSLG", "910GQPRK", "910GKLBRNHR", "910GSHMPSTD", "910GEUSTON"], "distances_m": [1253.8, 881.3, 1928.3, 2421.9, 1088.2, 1950.7, 1675.0, 1416.6, 901.9, 1255.7, 1692.4, 1527.8, 1000.6, 1363.6, 1441.8, 955.5, 1033.0, 3443.0]}, {"line": "WEL", "dir": "O", "branch_id": 1, "branch_name": "branch 1", "mode": "u", "mnlcs": [1444, 1451, 1415, 680, 617, 766, 596, 717, 751, 659, 709, 620, 597, 1434, 1398, 1442, 1395, 1455, 1402], "naptan_ids": ["910GEUSTON", "910GSHMPSTD", "910GKLBRNHR", "910GQPRK", "910GKENSLG", "910GWLSDJHL", "910GHARLSDN", "910GSTNBGPK", "910GWMBY", "910GNWEMBLY", "910GSKENTON", "910GKTON", "910GHROW", "910GHEDSTNL", "910GHTCHEND", "910GCRPNDPK", "910GBUSHYDC", "910GWATFDHS", "910GWATFJDC"], "distances_m": [3443.0, 1033.0, 955.5, 1441.8, 1363.6, 1000.6, 1527.8, 1692.4, 1255.7, 901.9, 1416.6, 1675.0, 1950.7, 1088.2, 2421.9, 1928.3, 881.3, 1253.8]}, {"line": "MET", "dir": "O", "branch_id": 8, "branch_name": "branch 0", "mode": "u", "mnlcs": [506, 539], "naptan_ids": ["940GZZLUAMS", "940GZZLUCAL"], "distances_m": [3314.0]}, {"line": "MET", "dir": "O", "branch_id": 17, "branch_name": "branch 1", "mode": "u", "mnlcs": [539, 546, 687, 646], "naptan_ids": ["940GZZLUCAL", "940GZZLUCYD", "940GZZLURKW", "940GZZLUMPK"], "distances_m": [3283.3, 3465.9, 3071.1]}, {"line": "MET", "dir": "O", "branch_id": 15, "branch_name": "branch 2", "mode": "u", "mnlcs": [646, 661, 662, 675, 656, 598], "naptan_ids": ["940GZZLUMPK", "940GZZLUNOW", "940GZZLUNWH", "940GZZLUPNR", "940GZZLUNHA", "940GZZLUHOH"], "distances_m": [2172.8, 1530.5, 2133.0, 1573.4, 1851.0]}, {"line": "MET", "dir": "O", "branch_id": 11, "branch_name": "branch 3", "mode": "u", "mnlcs": [598, 660, 677, 752], "naptan_ids": ["940GZZLUHOH", "940GZZLUNKP", "940GZZLUPRD", "940GZZLUWYP"], "distances_m": [1327.0, 1743.3, 1466.7]}, {"line": "MET", "dir": "O", "branch_id": 16, "branch_name": "branch 4", "mode": "u", "mnlcs": [579, 511, 588, 575, 625, 577, 501, 645, 634, 502], "naptan_ids": ["940GZZLUFYR", "940GZZLUBST", "940GZZLUGPS", "940GZZLUESQ", "940GZZLUKSX", "940GZZLUFCN", "940GZZLUBBN", "940GZZLUMGT", "940GZZLULVT", "940GZZLUALD"], "distances_m": [3091.3, 896.6, 615.5, 1039.4, 1714.5, 478.8, 708.7, 366.7, 624.2]}, {"line": "MET", "dir": "O", "branch_id": 14, "branch_name": "branch 5", "mode": "u", "mnlcs": [752, 765, 579], "naptan_ids": ["940GZZLUWYP", "940GZZLUWIG", "940GZZLUFYR"], "distances_m": [4285.8, 2894.4]}, {"line": "MET", "dir": "I", "branch_id": 0, "branch_name": "branch 6", "mode": "u", "mnlcs": [502, 634, 645, 501, 577, 625, 575, 588, 511, 579, 752, 677, 660, 598], "naptan_ids": ["940GZZLUALD", "940GZZLULVT", "940GZZLUMGT", "940GZZLUBBN", "940GZZLUFCN", "940GZZLUKSX", "940GZZLUESQ", "940GZZLUGPS", "940GZZLUBST", "940GZZLUFYR", "940GZZLUWYP", "940GZZLUPRD", "940GZZLUNKP", "940GZZLUHOH"], "distances_m": [624.2, 366.7, 708.7, 478.8, 1714.5, 1039.4, 615.5, 896.6, 3091.3, 7110.4, 1466.7, 1743.3, 1327.0]}, {"line": "MET", "dir": "I", "branch_id": 1, "branch_name": "branch 7", "mode": "u", "mnlcs": [598, 656, 675, 662, 661, 646], "naptan_ids": ["940GZZLUHOH", "940GZZLUNHA", "940GZZLUPNR", "940GZZLUNWH", "940GZZLUNOW", "940GZZLUMPK"], "distances_m": [1851.0, 1573.4, 2133.0, 1530.5, 2172.8]}, {"line": "MET", "dir": "I", "branch_id": 4, "branch_name": "branch 8", "mode": "u", "mnlcs": [646, 687, 546, 539], "naptan_ids": ["940GZZLUMPK", "940GZZLURKW", "940GZZLUCYD", "940GZZLUCAL"], "distances_m": [3071.1, 3465.9, 3283.3]}, {"line": "MET", "dir": "I", "branch_id": 5, "branch_name": "branch 9", "mode": "u", "mnlcs": [539, 543], "naptan_ids": ["940GZZLUCAL", "940GZZLUCSM"], "distances_m": [5411.0]}, {"line": "MET", "dir": "I", "branch_id": 6, "branch_name": "branch 10", "mode": "u", "mnlcs": [539, 506], "naptan_ids": ["940GZZLUCAL", "940GZZLUAMS"], "distances_m": [3314.0]}, {"line": "MET", "dir": "O", "branch_id": 13, "branch_name": "branch 11", "mode": "u", "mnlcs": [752, 579], "naptan_ids": ["940GZZLUWYP", "940GZZLUFYR"], "distances_m": [7110.4]}, {"line": "MET", "dir": "O", "branch_id": 10, "branch_name": "branch 12", "mode": "u", "mnlcs": [543, 539], "naptan_ids": ["940GZZLUCSM", "940GZZLUCAL"], "distances_m": [5411.0]}, {"line": "MET", "dir": "I", "branch_id": 2, "branch_name": "branch 13", "mode": "u", "mnlcs": [598, 759, 683, 564, 693, 691, 615, 606, 740], "naptan_ids": ["940GZZLUHOH", "940GZZLUWHW", "940GZZLURYL", "940GZZLUEAE", "940GZZLURSM", "940GZZLURSP", "940GZZLUICK", "940GZZLUHGD", "940GZZLUUXB"], "distances_m": [1119.2, 1325.9, 1820.0, 1138.9, 650.1, 1728.8, 1073.9, 2100.7]}, {"line": "MET", "dir": "O", "branch_id": 9, "branch_name": "branch 14", "mode": "u", "mnlcs": [740, 606, 615, 691, 693, 564, 683, 759, 598], "naptan_ids": ["940GZZLUUXB", "940GZZLUHGD", "940GZZLUICK", "940GZZLURSP", "940GZZLURSM", "940GZZLUEAE", "940GZZLURYL", "940GZZLUWHW", "940GZZLUHOH"], "distances_m": [2100.7, 1073.9, 1728.8, 650.1, 1138.9, 1820.0, 1325.9, 1119.2]}, {"line": "MET", "dir": "I", "branch_id": 3, "branch_name": "branch 15", "mode": "u", "mnlcs": [646, 554, 748], "naptan_ids": ["940GZZLUMPK", "940GZZLUCXY", "940GZZLUWAF"], "distances_m": [2016.5, 2039.1]}, {"line": "MET", "dir": "O", "branch_id": 7, "branch_name": "branch 16", "mode": "u", "mnlcs": [748, 554, 646], "naptan_ids": ["940GZZLUWAF", "940GZZLUCXY", "940GZZLUMPK"], "distances_m": [2039.1, 2016.5]}, {"line": "NLL", "dir": "I", "branch_id": 0, "branch_name": "branch 0", "mode": "u", "mnlcs": [686, 621, 591, 1452, 1404, 766], "naptan_ids": ["910GRICHMND", "910GKEWGRDN", "910GGNRSBRY", "910GSACTON", "910GACTNCTL", "910GWLSDJHL"], "distances_m": [1932.5, 1759.2, 959.6, 1119.6, 2935.5]}, {"line": "NLL", "dir": "I", "branch_id": 2, "branch_name": "branch 1", "mode": "u", "mnlcs": [766, 1448, 1438, 1437, 1421, 1445, 1413, 1409, 1449, 1440, 1439, 603, 1441, 1429, 6977, 6979, 6978, 719], "naptan_ids": ["910GWLSDJHL", "910GKENR", "910GBRBYPK", "910GBRBY", "910GWHMDSTD", "910GFNCHLYR", "910GHMPSTDH", "910GGOSPLOK", "910GKNTSHTW", "910GCMDNRD", "910GCLDNNRB", "910GHGHI", "910GCNNB", "910GDALSKLD", "910GHACKNYC", "910GHOMRTON", "910GHACKNYW", "910GSTFD"], "distances_m": [1716.3, 963.9, 734.2, 810.7, 637.3, 1325.0, 1032.6, 1017.7, 763.1, 1525.8, 962.0, 849.2, 1142.1, 1363.2, 947.3, 1270.8, 1497.9]}, {"line": "NLL", "dir": "I", "branch_id": 1, "branch_name": "branch 2", "mode": "u", "mnlcs": [5595, 9586, 755, 618, 9587, 766], "naptan_ids": ["910GCLPHMJ1", "910GCSEAH", "910GWBRMPTN", "910GKENOLYM", "910GSHPDSB", "910GWLSDJHL"], "distances_m": [1481.2, 1611.2, 1580.5, 963.9, 3552.2]}, {"line": "NLL", "dir": "O", "branch_id": 3, "branch_name": "branch 3", "mode": "u", "mnlcs": [719, 6978, 6979, 6977, 1429, 1441, 603, 1439, 1440, 1449, 1409, 1413, 1445, 1421, 1437, 1438, 1448, 766], "naptan_ids": ["910GSTFD", "910GHACKNYW", "910GHOMRTON", "910GHACKNYC", "910GDALSKLD", "910GCNNB", "910GHGHI", "910GCLDNNRB", "910GCMDNRD", "910GKNTSHTW", "910GGOSPLOK", "910GHMPSTDH", "910GFNCHLYR", "910GWHMDSTD", "910GBRBY", "910GBRBYPK", "910GKENR", "910GWLSDJHL"], "distances_m": [1497.9, 1270.8, 947.3, 1363.2, 1142.1, 849.2, 962.0, 1525.8, 763.1, 1017.7, 1032.6, 1325.0, 637.3, 810.7, 734.2, 963.9, 1716.3]}, {"line": "NLL", "dir": "O", "branch_id": 4, "branch_name": "branch 4", "mode": "u", "mnlcs": [766, 1404, 1452, 591, 621, 686], "naptan_ids": ["910GWLSDJHL", "910GACTNCTL", "910GSACTON", "910GGNRSBRY", "910GKEWGRDN", "910GRICHMND"], "distances_m": [2935.5, 1119.6, 959.6, 1759.2, 1932.5]}, {"line": "NLL", "dir": "O", "branch_id": 5, "branch_name": "branch 5", "mode": "u", "mnlcs": [766, 9587, 618, 755, 9586, 5595], "naptan_ids": ["910GWLSDJHL", "910GSHPDSB", "910GKENOLYM", "910GWBRMPTN", "910GCSEAH", "910GCLPHMJC"], "distances_m": [3552.2, 963.9, 1580.5, 1611.2, 1478.2]}, {"line": "NOR", "dir": "I", "branch_id": 1, "branch_name": "branch 0", "mode": "u", "mnlcs": [602, 730, 771, 756, 578], "naptan_ids": ["940GZZLUHBT", "940GZZLUTAW", "940GZZLUWOP", "940GZZLUWFN", "940GZZLUFYC"], "distances_m": [2449.9, 1463.4, 976.3, 988.5]}, {"line": "NOR", "dir": "I", "branch_id": 9, "branch_name": "branch 1", "mode": "u", "mnlcs": [578, 565, 604, 508, 733, 619, 535], "naptan_ids": ["940GZZLUFYC", "940GZZLUEFY", "940GZZLUHGT", "940GZZLUACY", "940GZZLUTFP", "940GZZLUKSH", "940GZZLUCTN"], "distances_m": [2442.1, 1700.3, 1542.2, 994.4, 741.1, 1233.2]}, {"line": "NOR", "dir": "I", "branch_id": 3, "branch_name": "branch 2", "mode": "u", "mnlcs": [535, 648, 574], "naptan_ids": ["940GZZLUCTN", "940GZZLUMTC", "940GZZLUEUS"], "distances_m": [581.2, 819.5]}, {"line": "NOR", "dir": "I", "branch_id": 5, "branch_name": "branch 3", "mode": "u", "mnlcs": [574, 745, 586, 728, 631, 718, 542, 747, 616], "naptan_ids": ["940GZZLUEUS", "940GZZLUWRR", "940GZZLUGDG", "940GZZLUTCR", "940GZZLULSQ", "940GZZLUCHX", "940GZZLUEMB", "940GZZLUWLO", "940GZZLUKNG"], "distances_m": [461.9, 556.1, 538.6, 577.0, 449.2, 321.5, 687.5, 1772.1]}, {"line": "NOR", "dir": "I", "branch_id": 8, "branch_name": "branch 4", "mode": "u", "mnlcs": [616, 668, 716, 548, 547, 549, 512, 726, 727, 552, 711, 647], "naptan_ids": ["940GZZLUKNG", "940GZZLUOVL", "940GZZLUSKW", "940GZZLUCPN", "940GZZLUCPC", "940GZZLUCPS", "940GZZLUBLM", "940GZZLUTBC", "940GZZLUTBY", "940GZZLUCSD", "940GZZLUSWN", "940GZZLUMDN"], "distances_m": [849.3, 1286.4, 935.5, 687.8, 1197.2, 1107.0, 966.6, 1076.8, 1249.9, 1016.0, 1477.2]}, {"line": "NOR", "dir": "I", "branch_id": 4, "branch_name": "branch 5", "mode": "u", "mnlcs": [535, 574], "naptan_ids": ["940GZZLUCTN", "940GZZLUEUS"], "distances_m": [1400.2]}, {"line": "NOR", "dir": "I", "branch_id": 6, "branch_name": "branch 6", "mode": "u", "mnlcs": [574, 625, 507, 665, 645, 513, 635, 525, 570, 616], "naptan_ids": ["940GZZLUEUS", "940GZZLUKSX", "940GZZLUAGL", "940GZZLUODS", "940GZZLUMGT", "940GZZLUBNK", "940GZZLULNB", "940GZZLUBOR", "940GZZLUEAC", "940GZZLUKNG"], "distances_m": [790.3, 1201.5, 1417.8, 855.7, 573.4, 828.1, 591.4, 894.3, 782.7]}, {"line": "NOR", "dir": "O", "branch_id": 11, "branch_name": "branch 7", "mode": "u", "mnlcs": [647, 711, 552, 727, 726, 512, 549, 547, 548, 716, 668, 616], "naptan_ids": ["940GZZLUMDN", "940GZZLUSWN", "940GZZLUCSD", "940GZZLUTBY", "940GZZLUTBC", "940GZZLUBLM", "940GZZLUCPS", "940GZZLUCPC", "940GZZLUCPN", "940GZZLUSKW", "940GZZLUOVL", "940GZZLUKNG"], "distances_m": [1477.2, 1016.0, 1249.9, 1076.8, 966.6, 1107.0, 1197.2, 687.8, 935.5, 1286.4, 849.3]},