{"stations": {"6560": {"name": "Canary Wharf EL", "asc": "CWXr", "lat": 51.506071, "lon": -0.017638}, "6561": {"name": "Custom House EL", "asc": "CUSr", "lat": 51.509629, "lon": 0.025903}, "6562": {"name": "Woolwich EL", "asc": "WWCr", "lat": 51.491915, "lon": 0.070671}, "9449": {"name": "Beddington Lane", "asc": "BDLt", "lat": 51.389458, "lon": -0.142848}, "500": {"name": "Acton Town", "asc": "ACTu", "lat": 51.502706, "lon": -0.279971}, "501": {"name": "Barbican", "asc": "BARu", "lat": 51.52015, "lon": -0.09869}, "502": {"name": "Aldgate", "asc": "ALDu", "lat": 51.514245, "lon": -0.075717}, "503": {"name": "Aldgate East", "asc": "ALEu", "lat": 51.515622, "lon": -0.070846}, "504": {"name": "Stratford International DLR", "asc": "STId", "lat": 51.545709, "lon": -0.009359}, "505": {"name": "Alperton", "asc": "ALPu", "lat": 51.540804, "lon": -0.300093}, "506": {"name": "Amersham", "asc": "AMEu", "lat": 51.674085, "lon": -0.607368}, "507": {"name": "Angel", "asc": "ANGu", "lat": 51.531942, "lon": -0.1061}, "508": {"name": "Archway", "asc": "ARCu", "lat": 51.565434, "lon": -0.134994}, "509": {"name": "Arnos Grove", "asc": "AGRu", "lat": 51.616403, "lon": -0.133281}, "510": {"name": "Arsenal", "asc": "ARLu", "lat": 51.558384, "lon": -0.107483}, "511": {"name": "Baker Street", "asc": "BSTu", "lat": 51.522587, "lon": -0.156739}, "512": {"name": "Balham LU", "asc": "BALu", "lat": 51.443356, "lon": -0.152865}, "513": {"name": "Bank and Monument", "asc": "BNKu", "lat": 51.513382, "lon": -0.088955}, "514": {"name": "Barking", "asc": "BKGu", "lat": 51.540267, "lon": 0.079323}, "515": {"name": "Barkingside", "asc": "BDEu", "lat": 51.585821, "lon": 0.08862}, "516": {"name": "Barons Court", "asc": "BCTu", "lat": 51.490268, "lon": -0.213659}, "517": {"name": "Bayswater", "asc": "BAYu", "lat": 51.51228, "lon": -0.188385}, "518": {"name": "Becontree", "asc": "BECu", "lat": 51.540312, "lon": 0.126525}, "519": {"name": "Belsize Park", "asc": "BPKu", "lat": 51.550309, "lon": -0.164619}, "520": {"name": "Bethnal Green LU", "asc": "BNGu", "lat": 51.52744, "lon": -0.054646}, "521": {"name": "Blackfriars LU", "asc": "BLFu", "lat": 51.511581, "lon": -0.103774}, "522": {"name": "Blackhorse Road", "asc": "BHRu", "lat": 51.586719, "lon": -0.041649}, "523": {"name": "King George V", "asc": "KGVd", "lat": 51.502006, "lon": 0.06235}, "524": {"name": "Bond Street", "asc": "BDSu", "lat": 51.5143, "lon": -0.149002}, "525": {"name": "Borough", "asc": "BORu", "lat": 51.501081, "lon": -0.093418}, "526": {"name": "Boston Manor", "asc": "BOSu", "lat": 51.495422, "lon": -0.325278}, "527": {"name": "Bounds Green", "asc": "BGRu", "lat": 51.607376, "lon": -0.124899}, "528": {"name": "Bow Road", "asc": "BWRu", "lat": 51.526851, "lon": -0.024786}, "529": {"name": "Brent Cross", "asc": "BTXu", "lat": 51.576815, "lon": -0.213977}, "530": {"name": "Bromley-by-Bow", "asc": "BBBu", "lat": 51.524626, "lon": -0.012326}, "531": {"name": "Buckhurst Hill", "asc": "BHLu", "lat": 51.625946, "lon": 0.046814}, "532": {"name": "Burnt Oak", "asc": "BURu", "lat": 51.602808, "lon": -0.264018}, "533": {"name": "London City Airport", "asc": "LCAd", "lat": 51.50359, "lon": 0.048416}, "534": {"name": "Caledonian Road", "asc": "CRDu", "lat": 51.548479, "lon": -0.118365}, "535": {"name": "Camden Town", "asc": "CTNu", "lat": 51.539424, "lon": -0.142691}, "536": {"name": "Cannon Street LU", "asc": "CSTu", "lat": 51.511382, "lon": -0.090365}, "537": {"name": "Canons Park", "asc": "CPKu", "lat": 51.608006, "lon": -0.294739}, "538": {"name": "Pontoon Dock", "asc": "PDKd", "lat": 51.502254, "lon": 0.033227}, "539": {"name": "Chalfont & Latimer", "asc": "CLFu", "lat": 51.668067, "lon": -0.560976}, "540": {"name": "Chalk Farm", "asc": "CHFu", "lat": 51.544118, "lon": -0.153475}, "541": {"name": "Chancery Lane", "asc": "CYLu", "lat": 51.518105, "lon": -0.112367}, "542": {"name": "Embankment", "asc": "EMBu", "lat": 51.507211, "lon": -0.122242}, "543": {"name": "Chesham", "asc": "CHMu", "lat": 51.705338, "lon": -0.611026}, "544": {"name": "Chigwell", "asc": "CHGu", "lat": 51.617641, "lon": 0.075722}, "545": {"name": "Chiswick Park", "asc": "CHPu", "lat": 51.494561, "lon": -0.267874}, "546": {"name": "Chorleywood", "asc": "CWDu", "lat": 51.654166, "lon": -0.518308}, "547": {"name": "Clapham Common", "asc": "CPCu", "lat": 51.462076, "lon": -0.137354}, "548": {"name": "Clapham North", "asc": "CPNu", "lat": 51.465123, "lon": -0.129916}, "549": {"name": "Clapham South", "asc": "CPSu", "lat": 51.452769, "lon": -0.147606}, "550": {"name": "Cockfosters", "asc": "CFSu", "lat": 51.651364, "lon": -0.148512}, "551": {"name": "Colindale", "asc": "COLu", "lat": 51.595405, "lon": -0.249934}, "552": {"name": "Colliers Wood", "asc": "CLWu", "lat": 51.418271, "lon": -0.177866}, "553": {"name": "Covent Garden", "asc": "COVu", "lat": 51.513089, "lon": -0.124277}, "554": {"name": "Croxley", "asc": "CRXu", "lat": 51.647582, "lon": -0.441078}, "555": {"name": "Dagenham East", "asc": "DGEu", "lat": 51.544015, "lon": 0.164945}, "556": {"name": "Dagenham Heathway", "asc": "DGHu", "lat": 51.541555, "lon": 0.145634}, "557": {"name": "Debden", "asc": "DEBu", "lat": 51.64528, "lon": 0.083589}, "558": {"name": "Dollis Hill", "asc": "DHLu", "lat": 51.551962, "lon": -0.239024}, "559": {"name": "West Silvertown", "asc": "WSId", "lat": 51.502883, "lon": 0.022332}, "560": {"name": "Ealing Broadway", "asc": "EBYu", "lat": 51.514982, "lon": -0.300406}, "561": {"name": "Ealing Common", "asc": "ECMu", "lat": 51.509714, "lon": -0.288166}, "562": {"name": "Earl's Court", "asc": "ECTu", "lat": 51.491611, "lon": -0.1939}, "563": {"name": "East Acton", "asc": "EACu", "lat": 51.517343, "lon": -0.248143}, "564": {"name": "Eastcote", "asc": "ETEu", "lat": 51.57659, "lon": -0.397053}, "565": {"name": "East Finchley", "asc": "EFYu", "lat": 51.587189, "lon": -0.164807}, "566": {"name": "East Ham", "asc": "EHMu", "lat": 51.539398, "lon": 0.052605}, "567": {"name": "East Putney", "asc": "EPYu", "lat": 51.458613, "lon": -0.211239}, "568": {"name": "Edgware", "asc": "EDGu", "lat": 51.613669, "lon": -0.274942}, "569": {"name": "Edgware Road (DIS)", "asc": "ERDu", "lat": 51.520259, "lon": -0.166562}, "570": {"name": "Elephant & Castle LU", "asc": "ELEu", "lat": 51.494884, "lon": -0.100577}, "571": {"name": "Elm Park", "asc": "EPKu", "lat": 51.54958, "lon": 0.197433}, "572": {"name": "Epping", "asc": "EPPu", "lat": 51.69363, "lon": 0.113982}, "573": {"name": "Woolwich Arsenal", "asc": "WOAd", "lat": 51.489896, "lon": 0.069294}, "574": {"name": "Euston LU", "asc": "EUSu", "lat": 51.528287, "lon": -0.133874}, "575": {"name": "Euston Square", "asc": "ESQu", "lat": 51.525688, "lon": -0.135566}, "576": {"name": "Fairlop", "asc": "FLPu", "lat": 51.595947, "lon": 0.091134}, "577": {"name": "Farringdon", "asc": "FARu", "lat": 51.520123, "lon": -0.104788}, "578": {"name": "Finchley Central", "asc": "FYCu", "lat": 51.600835, "lon": -0.192314}, "579": {"name": "Finchley Road", "asc": "FRDu", "lat": 51.547232, "lon": -0.180694}, "580": {"name": "Finsbury Park", "asc": "FPKu", "lat": 51.564833, "lon": -0.106422}, "581": {"name": "Fulham Broadway", "asc": "FBYu", "lat": 51.480881, "lon": -0.194353}, "582": {"name": "Gants Hill", "asc": "GHLu", "lat": 51.576576, "lon": 0.065306}, "583": {"name": "Gloucester Road", "asc": "GRDu", "lat": 51.494512, "lon": -0.183759}, "584": {"name": "Golders Green", "asc": "GGRu", "lat": 51.572302, "lon": -0.194023}, "585": {"name": "Goldhawk Road", "asc": "GHRu", "lat": 51.501758, "lon": -0.226566}, "586": {"name": "Goodge Street", "asc": "GSTu", "lat": 51.520597, "lon": -0.134361}, "587": {"name": "Grange Hill", "asc": "GRHu", "lat": 51.613135, "lon": 0.092502}, "588": {"name": "Great Portland Street", "asc": "GPSu", "lat": 51.523811, "lon": -0.143701}, "589": {"name": "Greenford", "asc": "GFDu", "lat": 51.542251, "lon": -0.34535}, "590": {"name": "Green Park", "asc": "GPKu", "lat": 51.506623, "lon": -0.142915}, "591": {"name": "Gunnersbury", "asc": "GUNu", "lat": 51.491374, "lon": -0.275528}, "592": {"name": "Hainault", "asc": "HAIu", "lat": 51.603317, "lon": 0.093365}, "593": {"name": "Hammersmith (DIS)", "asc": "HMDu", "lat": 51.492141, "lon": -0.223295}, "594": {"name": "Hampstead", "asc": "HMPu", "lat": 51.556594, "lon": -0.178431}, "595": {"name": "Hanger Lane", "asc": "HLNu", "lat": 51.530306, "lon": -0.293651}, "596": {"name": "Harlesden", "asc": "HARu", "lat": 51.536353, "lon": -0.257838}, "597": {"name": "Harrow & Wealdstone", "asc": "HAWu", "lat": 51.592216, "lon": -0.334873}, "598": {"name": "Harrow-on-the-Hill", "asc": "HOHu", "lat": 51.579266, "lon": -0.33666}, "599": {"name": "Wood Lane", "asc": "WDLu", "lat": 51.509946, "lon": -0.223885}, "601": {"name": "Hendon Central", "asc": "HNDu", "lat": 51.5834, "lon": -0.226551}, "602": {"name": "High Barnet", "asc": "HBTu", "lat": 51.650398, "lon": -0.193884}, "603": {"name": "Highbury & Islington", "asc": "HBYu", "lat": 51.546372, "lon": -0.103655}, "604": {"name": "Highgate", "asc": "HIGu", "lat": 51.577683, "lon": -0.145837}, "605": {"name": "High Street Kensington", "asc": "HSTu", "lat": 51.500297, "lon": -0.192116}, "606": {"name": "Hillingdon", "asc": "HDNu", "lat": 51.553604, "lon": -0.450466}, "607": {"name": "Holborn", "asc": "HOLu", "lat": 51.517113, "lon": -0.120062}, "608": {"name": "Holland Park", "asc": "HPKu", "lat": 51.507193, "lon": -0.205518}, "609": {"name": "Holloway Road", "asc": "HRDu", "lat": 51.552871, "lon": -0.113006}, "610": {"name": "Hornchurch", "asc": "HCHu", "lat": 51.553876, "lon": 0.21811}, "611": {"name": "Hounslow Central", "asc": "HNCu", "lat": 51.471307, "lon": -0.366232}, "612": {"name": "Hounslow East", "asc": "HNEu", "lat": 51.473202, "lon": -0.356431}, "613": {"name": "Hounslow West", "asc": "HNWu", "lat": 51.473583, "lon": -0.38582}, "614": {"name": "Hyde Park Corner", "asc": "HPCu", "lat": 51.50273, "lon": -0.154327}, "615": {"name": "Ickenham", "asc": "ICKu", "lat": 51.561572, "lon": -0.442347}, "616": {"name": "Kennington", "asc": "KENu", "lat": 51.488289, "lon": -0.105878}, "617": {"name": "Kensal Green", "asc": "KGNu", "lat": 51.53061, "lon": -0.224451}, "618": {"name": "Kensington (Olympia)", "asc": "OLYu", "lat": 51.497434, "lon": -0.209489}, "619": {"name": "Kentish Town", "asc": "KTNu", "lat": 51.550182, "lon": -0.138863}, "620": {"name": "Kenton", "asc": "KETu", "lat": 51.581525, "lon": -0.316645}, "621": {"name": "Kew Gardens", "asc": "KEWu", "lat": 51.477133, "lon": -0.284965}, "622": {"name": "Kilburn", "asc": "KILu", "lat": 51.546991, "lon": -0.205338}, "623": {"name": "Kilburn Park", "asc": "KPKu", "lat": 51.53507, "lon": -0.194372}, "624": {"name": "Kingsbury", "asc": "KBYu", "lat": 51.58432, "lon": -0.278709}, "625": {"name": "King's Cross St. Pancras", "asc": "KXXu", "lat": 51.530252, "lon": -0.124062}, "626": {"name": "Knightsbridge", "asc": "KNBu", "lat": 51.501753, "lon": -0.160821}, "627": {"name": "Ladbroke Grove", "asc": "LGRu", "lat": 51.51726, "lon": -0.211104}, "628": {"name": "Lambeth North", "asc": "LAMu", "lat": 51.498834, "lon": -0.112371}, "629": {"name": "Lancaster Gate", "asc": "LANu", "lat": 51.51185, "lon": -0.175115}, "630": {"name": "Latimer Road", "asc": "LATu", "lat": 51.513477, "lon": -0.217781}, "631": {"name": "Leicester Square", "asc": "LSQu", "lat": 51.511462, "lon": -0.128264}, "632": {"name": "Leyton", "asc": "LEYu", "lat": 51.556815, "lon": -0.005138}, "633": {"name": "Leytonstone", "asc": "LYSu", "lat": 51.568801, "lon": 0.008619}, "634": {"name": "Liverpool Street LU", "asc": "LSTu", "lat": 51.517681, "lon": -0.082376}, "635": {"name": "London Bridge LU", "asc": "LONu", "lat": 51.505032, "lon": -0.08589}, "636": {"name": "Loughton", "asc": "LTNu", "lat": 51.641219, "lon": 0.055307}, "637": {"name": "Maida Vale", "asc": "MDVu", "lat": 51.529793, "lon": -0.185787}, "638": {"name": "Manor House", "asc": "MNRu", "lat": 51.570318, "lon": -0.096396}, "639": {"name": "Mansion House", "asc": "MANu", "lat": 51.511893, "lon": -0.095229}, "640": {"name": "Marble Arch", "asc": "MARu", "lat": 51.513439, "lon": -0.158247}, "641": {"name": "Marylebone LU", "asc": "MYBu", "lat": 51.522235, "lon": -0.163499}, "642": {"name": "Mile End", "asc": "MLEu", "lat": 51.525342, "lon": -0.033429}, "643": {"name": "Mill Hill East", "asc": "MHEu", "lat": 51.608275, "lon": -0.210143}, "645": {"name": "Moorgate", "asc": "MGTu", "lat": 51.518249, "lon": -0.089069}, "646": {"name": "Moor Park", "asc": "MPKu", "lat": 51.629776, "lon": -0.432153}, "647": {"name": "Morden", "asc": "MORu", "lat": 51.40276, "lon": -0.194757}, "648": {"name": "Mornington Crescent", "asc": "MCRu", "lat": 51.534064, "lon": -0.138093}, "649": {"name": "Neasden", "asc": "NEAu", "lat": 51.55434, "lon": -0.250746}, "650": {"name": "Newbury Park", "asc": "NEPu", "lat": 51.575501, "lon": 0.089965}, "653": {"name": "North Acton", "asc": "NACu", "lat": 51.52349, "lon": -0.259381}, "654": {"name": "North Ealing", "asc": "NELu", "lat": 51.517492, "lon": -0.288753}, "655": {"name": "Northfields", "asc": "NFDu", "lat": 51.499661, "lon": -0.312978}, "656": {"name": "North Harrow", "asc": "NHRu", "lat": 51.58516, "lon": -0.363177}, "657": {"name": "Northolt", "asc": "NHTu", "lat": 51.548461, "lon": -0.369528}, "659": {"name": "North Wembley", "asc": "NWBu", "lat": 51.562404, "lon": -0.303876}, "660": {"name": "Northwick Park", "asc": "NWPu", "lat": 51.578492, "lon": -0.317695}, "661": {"name": "Northwood", "asc": "NWDu", "lat": 51.610798, "lon": -0.423708}, "662": {"name": "Northwood Hills", "asc": "NWHu", "lat": 51.600152, "lon": -0.408453}, "663": {"name": "Notting Hill Gate", "asc": "NHGu", "lat": 51.50893, "lon": -0.196199}, "664": {"name": "Oakwood", "asc": "OAKu", "lat": 51.647332, "lon": -0.131259}, "665": {"name": "Old Street", "asc": "OLDu", "lat": 51.525626, "lon": -0.087607}, "667": {"name": "Osterley", "asc": "OSTu", "lat": 51.481236, "lon": -0.352196}, "668": {"name": "Oval", "asc": "OVLu", "lat": 51.481838, "lon": -0.112396}, "669": {"name": "Oxford Circus", "asc": "OXCu", "lat": 51.515181, "lon": -0.141011}, "670": {"name": "Paddington TfL", "asc": "PADu", "lat": 51.515838, "lon": -0.174854}, "671": {"name": "Park Royal", "asc": "PRYu", "lat": 51.526432, "lon": -0.283935}, "672": {"name": "Parsons Green", "asc": "PGRu", "lat": 51.475284, "lon": -0.201155}, "673": {"name": "Perivale", "asc": "PERu", "lat": 51.536496, "lon": -0.322589}, "674": {"name": "Piccadilly Circus", "asc": "PICu", "lat": 51.509818, "lon": -0.134542}, "675": {"name": "Pinner", "asc": "PINu", "lat": 51.592659, "lon": -0.380636}, "676": {"name": "Plaistow", "asc": "PLWu", "lat": 51.531154, "lon": 0.016679}, "677": {"name": "Preston Road", "asc": "PRDu", "lat": 51.572277, "lon": -0.295802}, "678": {"name": "Putney Bridge", "asc": "PUTu", "lat": 51.468297, "lon": -0.208816}, "679": {"name": "Queensbury", "asc": "QBYu", "lat": 51.594186, "lon": -0.286176}, "680": {"name": "Queen's Park", "asc": "QPKu", "lat": 51.533873, "lon": -0.205493}, "681": {"name": "Queensway", "asc": "QWYu", "lat": 51.510491, "lon": -0.187245}, "682": {"name": "Ravenscourt Park", "asc": "RCPu", "lat": 51.494128, "lon": -0.235794}, "683": {"name": "Rayners Lane", "asc": "RAYu", "lat": 51.575213, "lon": -0.371471}, "684": {"name": "Redbridge", "asc": "REDu", "lat": 51.576322, "lon": 0.045406}, "685": {"name": "Regent's Park", "asc": "RPKu", "lat": 51.523624, "lon": -0.146635}, "686": {"name": "Richmond", "asc": "RMDu", "lat": 51.463204, "lon": -0.300416}, "687": {"name": "Rickmansworth", "asc": "RKYu", "lat": 51.640184, "lon": -0.4734}, "688": {"name": "Roding Valley", "asc": "RODu", "lat": 51.617078, "lon": 0.043757}, "690": {"name": "Royal Oak", "asc": "ROYu", "lat": 51.519019, "lon": -0.18744}, "691": {"name": "Ruislip", "asc": "RUIu", "lat": 51.571398, "lon": -0.421333}, "692": {"name": "Ruislip Gardens", "asc": "RUGu", "lat": 51.560632, "lon": -0.410454}, "693": {"name": "Ruislip Manor", "asc": "RUMu", "lat": 51.573401, "lon": -0.411798}, "694": {"name": "Russell Square", "asc": "RSQu", "lat": 51.522918, "lon": -0.124263}, "695": {"name": "St James's Park", "asc": "SJPu", "lat": 51.499279, "lon": -0.134598}, "696": {"name": "St John's Wood", "asc": "SJWu", "lat": 51.535351, "lon": -0.174204}, "697": {"name": "St Paul's", "asc": "STPu", "lat": 51.51542, "lon": -0.098728}, "698": {"name": "Seven Sisters", "asc": "SVSu", "lat": 51.582476, "lon": -0.074929}, "700": {"name": "Shepherd's Bush LU", "asc": "SBCu", "lat": 51.504358, "lon": -0.218324}, "702": {"name": "Sloane Square", "asc": "SSQu", "lat": 51.492264, "lon": -0.156133}, "703": {"name": "Snaresbrook", "asc": "SNBu", "lat": 51.580998, "lon": 0.021526}, "704": {"name": "South Ealing", "asc": "SELu", "lat": 51.500862, "lon": -0.307689}, "705": {"name": "Southfields", "asc": "SFSu", "lat": 51.445773, "lon": -0.206618}, "706": {"name": "Southgate", "asc": "SGTu", "lat": 51.632322, "lon": -0.127787}, "707": {"name": "South Harrow", "asc": "SHRu", "lat": 51.564648, "lon": -0.352227}, "708": {"name": "South Kensington", "asc": "SKNu", "lat": 51.494048, "lon": -0.173045}, "709": {"name": "South Kenton", "asc": "SKTu", "lat": 51.570376, "lon": -0.308601}, "710": {"name": "South Ruislip", "asc": "SRPu", "lat": 51.556988, "lon": -0.399069}, "711": {"name": "South Wimbledon", "asc": "SWMu", "lat": 51.415173, "lon": -0.192643}, "712": {"name": "South Woodford", "asc": "SWFu", "lat": 51.591777, "lon": 0.027433}, "713": {"name": "Stamford Brook", "asc": "STBu", "lat": 51.494972, "lon": -0.245889}, "714": {"name": "Stanmore", "asc": "STAu", "lat": 51.618857, "lon": -0.302624}, "715": {"name": "Stepney Green", "asc": "STGu", "lat": 51.521706, "lon": -0.046717}, "716": {"name": "Stockwell", "asc": "STKu", "lat": 51.472207, "lon": -0.122499}, "717": {"name": "Stonebridge Park", "asc": "SPKu", "lat": 51.544106, "lon": -0.276232}, "718": {"name": "Charing Cross LU", "asc": "CHXu", "lat": 51.50797, "lon": -0.12639}, "719": {"name": "Stratford", "asc": "SFDu", "lat": 51.541294, "lon": -0.003553}, "720": {"name": "Sudbury Hill", "asc": "SHLu", "lat": 51.556878, "lon": -0.33625}, "721": {"name": "Sudbury Town", "asc": "STNu", "lat": 51.550748, "lon": -0.315617}, "723": {"name": "Swiss Cottage", "asc": "SWCu", "lat": 51.543726, "lon": -0.174979}, "724": {"name": "Temple", "asc": "TEMu", "lat": 51.510969, "lon": -0.114334}, "725": {"name": "Theydon Bois", "asc": "THBu", "lat": 51.67178, "lon": 0.103318}, "726": {"name": "Tooting Bec", "asc": "TBEu", "lat": 51.435612, "lon": -0.159652}, "727": {"name": "Tooting Broadway", "asc": "TBYu", "lat": 51.427753, "lon": -0.168297}, "728": {"name": "Tottenham Court Road", "asc": "TCRu", "lat": 51.516256, "lon": -0.131152}, "6872": {"name": "Brentwood", "asc": "BREr", "lat": 51.613813, "lon": 0.299466}, "6874": {"name": "Chadwell Heath", "asc": "CTHr", "lat": 51.567916, "lon": 0.128202}, "731": {"name": "Tower Hill", "asc": "THLu", "lat": 51.509846, "lon": -0.076695}, "6876": {"name": "Forest Gate", "asc": "FOGr", "lat": 51.549251, "lon": 0.023278}, "6877": {"name": "Gidea Park", "asc": "GDPr", "lat": 51.581529, "lon": 0.20573}, "734": {"name": "Turnham Green", "asc": "TGRu", "lat": 51.49513, "lon": -0.254699}, "6878": {"name": "Goodmayes", "asc": "GMYr", "lat": 51.565743, "lon": 0.112085}, "736": {"name": "Upminster", "asc": "UPMu", "lat": 51.558948, "lon": 0.252088}, "737": {"name": "Upminster Bridge", "asc": "UPBu", "lat": 51.558263, "lon": 0.234771}, "738": {"name": "Upney", "asc": "UPYu", "lat": 51.538269, "lon": 0.099622}, "739": {"name": "Upton Park", "asc": "UPKu", "lat": 51.535109, "lon": 0.033984}, "740": {"name": "Uxbridge", "asc": "UXBu", "lat": 51.546657, "lon": -0.477513}, "741": {"name": "Victoria LU", "asc": "VICu", "lat": 51.496367, "lon": -0.143159}, "6883": {"name": "Manor Park", "asc": "MNPr", "lat": 51.552201, "lon": 0.045031}, "743": {"name": "Wanstead", "asc": "WANu", "lat": 51.575642, "lon": 0.028635}, "6881": {"name": "Ilford", "asc": "IFDr", "lat": 51.558941, "lon": 0.068907}, "6886": {"name": "Romford", "asc": "RMFr", "lat": 51.575046, "lon": 0.183089}, "746": {"name": "Warwick Avenue", "asc": "WARu", "lat": 51.522984, "lon": -0.183304}, "747": {"name": "Waterloo LU", "asc": "WLOu", "lat": 51.503005, "lon": -0.113986}, "748": {"name": "Watford", "asc": "WATu", "lat": 51.657008, "lon": -0.418375}, "749": {"name": "Stratford High Street", "asc": "SHSd", "lat": 51.537647, "lon": -0.000122}, "750": {"name": "Abbey Road", "asc": "ABRd", "lat": 51.532539, "lon": 0.003605}, "751": {"name": "Wembley Central", "asc": "WEMu", "lat": 51.552378, "lon": -0.296489}, "752": {"name": "Wembley Park", "asc": "WPKu", "lat": 51.563631, "lon": -0.280053}, "6893": {"name": "Seven Kings", "asc": "SVKr", "lat": 51.563903, "lon": 0.096878}, "754": {"name": "Westbourne Park", "asc": "WBPu", "lat": 51.520925, "lon": -0.201404}, "753": {"name": "West Acton", "asc": "WACu", "lat": 51.518351, "lon": -0.280419}, "755": {"name": "West Brompton", "asc": "WBTu", "lat": 51.486973, "lon": -0.195193}, "757": {"name": "West Ham", "asc": "WHMu", "lat": 51.528098, "lon": 0.004563}, "758": {"name": "West Hampstead LU", "asc": "WHDu", "lat": 51.546818, "lon": -0.18997}, "759": {"name": "West Harrow", "asc": "WHRu", "lat": 51.579587, "lon": -0.353072}, "760": {"name": "West Kensington", "asc": "WKNu", "lat": 51.490662, "lon": -0.205923}, "761": {"name": "Westminster", "asc": "WMSu", "lat": 51.501355, "lon": -0.124932}, "762": {"name": "West Ruislip", "asc": "WRPu", "lat": 51.569504, "lon": -0.43704}, "763": {"name": "Whitechapel", "asc": "WCLu", "lat": 51.519582, "lon": -0.060689}, "764": {"name": "White City", "asc": "WCTu", "lat": 51.511938, "lon": -0.22424}, "765": {"name": "Willesden Green", "asc": "WLGu", "lat": 51.549352, "lon": -0.222221}, "766": {"name": "Willesden Junction", "asc": "WJNu", "lat": 51.532192, "lon": -0.243507}, "767": {"name": "Wimbledon", "asc": "WIMu", "lat": 51.422076, "lon": -0.205287}, "768": {"name": "Wimbledon Park", "asc": "WMPu", "lat": 51.434057, "lon": -0.199049}, "769": {"name": "Woodford", "asc": "WFDu", "lat": 51.606807, "lon": 0.03401}, "770": {"name": "Wood Green", "asc": "WGNu", "lat": 51.597413, "lon": -0.109774}, "771": {"name": "Woodside Park", "asc": "WSPu", "lat": 51.617951, "lon": -0.185581}, "6914": {"name": "Chingford", "asc": "CHIr", "lat": 51.63242, "lon": 0.009319}, "773": {"name": "Hammersmith (H&C)", "asc": "HMSu", "lat": 51.493524, "lon": -0.224941}, "774": {"name": "Edgware Road (Bak)", "asc": "ERBu", "lat": 51.520462, "lon": -0.170302}, "775": {"name": "Shepherd's Bush Market", "asc": "SBMu", "lat": 51.50607, "lon": -0.226284}, "776": {"name": "Pimlico", "asc": "PIMu", "lat": 51.489191, "lon": -0.133555}, "777": {"name": "Vauxhall LU", "asc": "VUXu", "lat": 51.486013, "lon": -0.124856}, "778": {"name": "Brixton LU", "asc": "BRXu", "lat": 51.462685, "lon": -0.114727}, "779": {"name": "Hatton Cross", "asc": "HTXu", "lat": 51.46654, "lon": -0.42399}, "780": {"name": "Heathrow Terminals 123 LU", "asc": "HRCu", "lat": 51.471344, "lon": -0.452477}, "781": {"name": "Heathrow Terminal 4 LU", "asc": "HRFu", "lat": 51.458806, "lon": -0.445474}, "6926": {"name": "Clapton", "asc": "CPTr", "lat": 51.561657, "lon": -0.056808}, "783": {"name": "Heathrow Terminal 5 LU", "asc": "HRVu", "lat": 51.472514, "lon": -0.487729}, "784": {"name": "Southwark", "asc": "SWKu", "lat": 51.504102, "lon": -0.10505}, "787": {"name": "Bermondsey", "asc": "BERu", "lat": 51.4977, "lon": -0.064341}, "788": {"name": "Canada Water", "asc": "CWRu", "lat": 51.497927, "lon": -0.049838}, "789": {"name": "North Greenwich", "asc": "NOGu", "lat": 51.500575, "lon": 0.004321}, "6934": {"name": "Stoke Newington", "asc": "SKWr", "lat": 51.565066, "lon": -0.072678}, "6941": {"name": "Edmonton Green", "asc": "EDRr", "lat": 51.624839, "lon": -0.061203}, "6947": {"name": "Southbury", "asc": "SBUr", "lat": 51.647871, "lon": -0.052689}, "6949": {"name": "Theobalds Grove", "asc": "TEOr", "lat": 51.691982, "lon": -0.035604}, "6952": {"name": "Turkey Street", "asc": "TURr", "lat": 51.672734, "lon": -0.047183}, "6954": {"name": "Wood Street", "asc": "WSTr", "lat": 51.587043, "lon": -0.001678}, "6956": {"name": "White Hart Lane", "asc": "WHLr", "lat": 51.604575, "lon": -0.070789}, "6958": {"name": "Bruce Grove", "asc": "BCVr", "lat": 51.593709, "lon": -0.070051}, "6959": {"name": "Enfield Town", "asc": "ENFr", "lat": 51.651717, "lon": -0.07869}, "6961": {"name": "Bethnal Green LO", "asc": "BETr", "lat": 51.523889, "lon": -0.059598}, "6962": {"name": "Cambridge Heath", "asc": "CBHr", "lat": 51.532244, "lon": -0.057484}, "6965": {"name": "Liverpool Street NR", "asc": "LSTr", "lat": 51.51804, "lon": -0.08177}, "6966": {"name": "London Fields", "asc": "LOFr", "lat": 51.541116, "lon": -0.057784}, "6967": {"name": "Rectory Road", "asc": "RECr", "lat": 51.558629, "lon": -0.068406}, "6968": {"name": "Stamford Hill", "asc": "SMHr", "lat": 51.574429, "lon": -0.076655}, "6970": {"name": "Maryland", "asc": "MYLr", "lat": 51.546051, "lon": 0.005929}, "6972": {"name": "Silver Street", "asc": "SLVr", "lat": 51.614972, "lon": -0.067055}, "6973": {"name": "St James Street", "asc": "SJSr", "lat": 51.581147, "lon": -0.03219}, "831": {"name": "Nine Elms", "asc": "NIEu", "lat": 51.48, "lon": 0.1285}, "832": {"name": "Battersea Power Station", "asc": "BPSu", "lat": 51.4795, "lon": 0.142}, "6977": {"name": "Hackney Central", "asc": "HKCr", "lat": 51.547088, "lon": -0.056765}, "6978": {"name": "Hackney Wick", "asc": "HKWr", "lat": 51.543425, "lon": -0.02427}, "6979": {"name": "Homerton", "asc": "HMNr", "lat": 51.547074, "lon": -0.042963}, "842": {"name": "Canary Wharf DLR", "asc": "CAWd", "lat": 51.505106, "lon": -0.020986}, "850": {"name": "All Saints", "asc": "ALSd", "lat": 51.510564, "lon": -0.01301}, "851": {"name": "Bow Church", "asc": "BOCd", "lat": 51.527793, "lon": -0.020925}, "852": {"name": "Canary Wharf LU", "asc": "CWFu", "lat": 51.503501, "lon": -0.018634}, "853": {"name": "Langdon Park", "asc": "LAPd", "lat": 51.515268, "lon": -0.014117}, "854": {"name": "Crossharbour", "asc": "CROd", "lat": 51.495904, "lon": -0.01444}, "855": {"name": "Heron Quays", "asc": "HEQd", "lat": 51.502949, "lon": -0.021583}, "856": {"name": "Island Gardens", "asc": "ISGd", "lat": 51.488058, "lon": -0.010489}, "857": {"name": "Mudchute", "asc": "MUDd", "lat": 51.491523, "lon": -0.014919}, "858": {"name": "Poplar", "asc": "POPd", "lat": 51.507693, "lon": -0.017127}, "859": {"name": "Pudding Mill Lane", "asc": "PMLd", "lat": 51.533776, "lon": -0.013643}, "860": {"name": "Shadwell DLR", "asc": "SHAd", "lat": 51.511745, "lon": -0.055531}, "861": {"name": "South Quay", "asc": "SOQd", "lat": 51.500035, "lon": -0.016249}, "862": {"name": "Limehouse DLR", "asc": "LIMd", "lat": 51.51235, "lon": -0.039465}, "864": {"name": "Tower Gateway", "asc": "TOGd", "lat": 51.510628, "lon": -0.073953}, "865": {"name": "Westferry", "asc": "WESd", "lat": 51.50942, "lon": -0.026722}, "866": {"name": "West India Quay", "asc": "WIQd", "lat": 51.506743, "lon": -0.020482}, "867": {"name": "Devons Road", "asc": "DERd", "lat": 51.522237, "lon": -0.017274}, "879": {"name": "Cutty Sark", "asc": "CUSd", "lat": 51.481775, "lon": -0.01069}, "882": {"name": "Blackwall", "asc": "BLAd", "lat": 51.507939, "lon": -0.007187}, "883": {"name": "East India", "asc": "EAId", "lat": 51.509382, "lon": -0.002181}, "884": {"name": "Canning Town", "asc": "CNTu", "lat": 51.513987, "lon": 0.008296}, "886": {"name": "Royal Victoria", "asc": "ROVd", "lat": 51.509107, "lon": 0.017593}, "887": {"name": "Custom House DLR", "asc": "CUHd", "lat": 51.509629, "lon": 0.025903}, "888": {"name": "Prince Regent", "asc": "PRRd", "lat": 51.509476, "lon": 0.033159}, "889": {"name": "Star Lane", "asc": "STLd", "lat": 51.520541, "lon": 0.004203}, "890": {"name": "Royal Albert", "asc": "ROAd", "lat": 51.508392, "lon": 0.045879}, "891": {"name": "Beckton Park", "asc": "BEPd", "lat": 51.508718, "lon": 0.055001}, "893": {"name": "Cyprus", "asc": "CYPd", "lat": 51.508425, "lon": 0.064023}, "894": {"name": "Gallions Reach", "asc": "GARd", "lat": 51.508962, "lon": 0.071787}, "895": {"name": "Beckton", "asc": "BECd", "lat": 51.514371, "lon": 0.061366}, "897": {"name": "Deptford Bridge", "asc": "DEBd", "lat": 51.474168, "lon": -0.022397}, "898": {"name": "Elverson Road", "asc": "ELRd", "lat": 51.468524, "lon": -0.016205}, "928": {"name": "Greenwich", "asc": "GREd", "lat": 51.478114, "lon": -0.015386}, "940": {"name": "Lewisham DLR", "asc": "LEWd", "lat": 51.464989, "lon": -0.013004}, "7090": {"name": "Heathrow Terminals 2 & 3 EL", "asc": "HXXr", "lat": 51.471925, "lon": -0.454315}, "7091": {"name": "Heathrow Terminal 4 EL", "asc": "HAFr", "lat": 51.459091, "lon": -0.445997}, "3000": {"name": "Acton Main Line", "asc": "AMLr", "lat": 51.516971, "lon": -0.267946}, "1022": {"name": "Haggerston", "asc": "HGGr", "lat": 51.538519, "lon": -0.075386}, "1023": {"name": "Hoxton", "asc": "HOXr", "lat": 51.531288, "lon": -0.07585}, "1024": {"name": "Shoreditch High Street", "asc": "SDCr", "lat": 51.523263, "lon": -0.075063}, "5131": {"name": "Abbey Wood", "asc": "ABWr", "lat": 51.491078, "lon": 0.120458}, "1039": {"name": "Rotherhithe", "asc": "ROEr", "lat": 51.500776, "lon": -0.051906}, "3087": {"name": "Paddington NR", "asc": "PADr", "lat": 51.517273, "lon": -0.177492}, "5150": {"name": "New Cross", "asc": "NWXr", "lat": 51.476372, "lon": -0.032627}, "1082": {"name": "Shadwell LO", "asc": "SDEr", "lat": 51.511246, "lon": -0.056921}, "1083": {"name": "Surrey Quays", "asc": "SQEr", "lat": 51.493425, "lon": -0.047826}, "1085": {"name": "Wapping", "asc": "WPEr", "lat": 51.504433, "lon": -0.056015}, "3147": {"name": "Maidenhead", "asc": "MAIr", "lat": 51.518308, "lon": -0.722685}, "3149": {"name": "Reading", "asc": "RDGr", "lat": 51.459193, "lon": -0.972329}, "3151": {"name": "Taplow", "asc": "TAPr", "lat": 51.523438, "lon": -0.681619}, "3155": {"name": "Twyford", "asc": "TWYr", "lat": 51.475317, "lon": -0.863341}, "3170": {"name": "Iver", "asc": "IVRr", "lat": 51.508592, "lon": -0.506824}, "3171": {"name": "Langley", "asc": "LNYr", "lat": 51.507855, "lon": -0.541864}, "3172": {"name": "Slough", "asc": "SLOr", "lat": 51.512073, "lon": -0.591216}, "3174": {"name": "West Drayton", "asc": "WDTr", "lat": 51.509755, "lon": -0.471452}, "3176": {"name": "Burnham", "asc": "BNMr", "lat": 51.523281, "lon": -0.646568}, "3186": {"name": "Hayes & Harlington", "asc": "HAYr", "lat": 51.502955, "lon": -0.419046}, "3187": {"name": "Southall", "asc": "STLr", "lat": 51.506055, "lon": -0.377368}, "3188": {"name": "West Ealing", "asc": "WEAr", "lat": 51.513443, "lon": -0.320928}, "3191": {"name": "Hanwell", "asc": "HANr", "lat": 51.511718, "lon": -0.338703}, "8776": {"name": "West Croydon Trams", "asc": "WCRt", "lat": 51.379049, "lon": -0.101626}, "8777": {"name": "Wimbledon Trams", "asc": "WMBt", "lat": 51.421218, "lon": -0.205652}, "8779": {"name": "Woodside", "asc": "WDSt", "lat": 51.387079, "lon": -0.065334}, "5301": {"name": "Clapham High Street", "asc": "CLPr", "lat": 51.465485, "lon": -0.13232}, "9440": {"name": "Addiscombe", "asc": "ADSt", "lat": 51.379935, "lon": -0.073265}, "5345": {"name": "New Cross Gate", "asc": "NXGr", "lat": 51.475034, "lon": -0.040216}, "9442": {"name": "Ampere Way", "asc": "AMPt", "lat": 51.382363, "lon": -0.123692}, "9443": {"name": "Arena", "asc": "ARNt", "lat": 51.391603, "lon": -0.058258}, "9444": {"name": "Avenue Road", "asc": "AVRt", "lat": 51.406799, "lon": -0.049519}, "9445": {"name": "Beckenham Junction Trams", "asc": "BCJt", "lat": 51.410812, "lon": -0.026556}, "9446": {"name": "Beckenham Road", "asc": "BCRt", "lat": 51.409634, "lon": -0.043157}, "9441": {"name": "Addington Village", "asc": "ADVt", "lat": 51.356269, "lon": -0.032879}, "7401": {"name": "Harringay Green Lanes", "asc": "HRYr", "lat": 51.577266, "lon": -0.097852}, "7402": {"name": "Leyton Midland Road", "asc": "LEMr", "lat": 51.569419, "lon": -0.007025}, "7403": {"name": "Leytonstone High Road", "asc": "LERr", "lat": 51.563533, "lon": 0.008545}, "5356": {"name": "Crystal Palace", "asc": "CYPr", "lat": 51.417663, "lon": -0.071262}, "7404": {"name": "South Tottenham", "asc": "STOr", "lat": 51.580437, "lon": -0.071782}, "7406": {"name": "Crouch Hill", "asc": "CRHr", "lat": 51.571561, "lon": -0.116604}, "7407": {"name": "Walthamstow Queen's Road", "asc": "WMWr", "lat": 51.581527, "lon": -0.023758}, "7408": {"name": "Wanstead Park", "asc": "WNPr", "lat": 51.551754, "lon": 0.025725}, "9450": {"name": "Belgrave Walk", "asc": "BGWt", "lat": 51.400821, "lon": -0.178171}, "5362": {"name": "Forest Hill", "asc": "FOHr", "lat": 51.439241, "lon": -0.053087}, "9459": {"name": "Blackhorse Lane", "asc": "BHLt", "lat": 51.384993, "lon": -0.070222}, "9454": {"name": "Birkbeck Trams", "asc": "BKBt", "lat": 51.403747, "lon": -0.055802}, "9460": {"name": "Church Street", "asc": "CSTt", "lat": 51.37366, "lon": -0.104234}, "9464": {"name": "Coombe Lane", "asc": "COOt", "lat": 51.359816, "lon": -0.060076}, "5372": {"name": "Wandsworth Road", "asc": "WWRr", "lat": 51.469962, "lon": -0.138429}, "9468": {"name": "Dundonald Road", "asc": "DDRt", "lat": 51.417726, "lon": -0.207802}, "9470": {"name": "East Croydon Trams", "asc": "ECRt", "lat": 51.374867, "lon": -0.092732}, "9471": {"name": "Elmers End Trams", "asc": "ELMt", "lat": 51.398346, "lon": -0.049533}, "5376": {"name": "Norwood Jn", "asc": "NWDr", "lat": 51.397171, "lon": -0.074698}, "9472": {"name": "Fieldway", "asc": "FLWt", "lat": 51.35097, "lon": -0.024174}, "5378": {"name": "Penge West", "asc": "PNWr", "lat": 51.417515, "lon": -0.060698}, "9475": {"name": "Harrington Road", "asc": "HRDt", "lat": 51.399661, "lon": -0.060475}, "9474": {"name": "Gravel Hill", "asc": "GVHt", "lat": 51.354576, "lon": -0.042919}, "9477": {"name": "Lebanon Road", "asc": "LEBt", "lat": 51.375213, "lon": -0.084729}, "9478": {"name": "Lloyd Park", "asc": "LPKt", "lat": 51.36421, "lon": -0.080577}, "9479": {"name": "Merton Park", "asc": "MPKt", "lat": 51.41364, "lon": -0.201131}, "9480": {"name": "Mitcham", "asc": "MTMt", "lat": 51.397538, "lon": -0.171157}, "9481": {"name": "Mitcham Junction Trams", "asc": "MTJt", "lat": 51.392682, "lon": -0.157422}, "9482": {"name": "Morden Road", "asc": "MRDt", "lat": 51.408852, "lon": -0.19272}, "9476": {"name": "King Henry's Drive", "asc": "KHDt", "lat": 51.345373, "lon": -0.020236}, "9484": {"name": "New Addington", "asc": "NADt", "lat": 51.342673, "lon": -0.017452}, "9485": {"name": "Phipps Bridge", "asc": "PHLt", "lat": 51.403311, "lon": -0.182112}, "9486": {"name": "Reeves Corner", "asc": "RVCt", "lat": 51.374807, "lon": -0.106255}, "9487": {"name": "Sandilands", "asc": "SANt", "lat": 51.374964, "lon": -0.077742}, "9488": {"name": "Centrale", "asc": "TWRt", "lat": 51.375865, "lon": -0.103784}, "9491": {"name": "Therapia Lane", "asc": "TPLt", "lat": 51.385696, "lon": -0.129089}, "5397": {"name": "Anerley", "asc": "ANYr", "lat": 51.412587, "lon": -0.06558}, "9497": {"name": "Waddon Marsh", "asc": "WDMt", "lat": 51.376999, "lon": -0.117833}, "9498": {"name": "Wandle Park", "asc": "WPKt", "lat": 51.373483, "lon": -0.113365}, "9499": {"name": "Wellesley Road", "asc": "WLRt", "lat": 51.375621, "lon": -0.097615}, "5404": {"name": "Brockley", "asc": "BCYr", "lat": 51.46462, "lon": -0.037552}, "5411": {"name": "West Croydon NR", "asc": "WCYr", "lat": 51.378804, "lon": -0.102038}, "5418": {"name": "Honor Oak Park", "asc": "HPAr", "lat": 51.450021, "lon": -0.045389}, "7467": {"name": "Woodgrange Park", "asc": "WGRr", "lat": 51.549131, "lon": 0.04472}, "5420": {"name": "Battersea Park", "asc": "BAKr", "lat": 51.47803, "lon": -0.148239}, "5421": {"name": "Denmark Hill", "asc": "DMKr", "lat": 51.468043, "lon": -0.089598}, "5423": {"name": "Peckham Rye", "asc": "PMRr", "lat": 51.469824, "lon": -0.06987}, "5424": {"name": "Queens Road Peckham", "asc": "QRPr", "lat": 51.473673, "lon": -0.057338}, "7473": {"name": "Emerson Park", "asc": "EMPr", "lat": 51.568646, "lon": 0.220287}, "1335": {"name": "Barking Riverside", "asc": "BGVr", "lat": 51.51973, "lon": 0.11607}, "5437": {"name": "Sydenham", "asc": "SYDr", "lat": 51.426945, "lon": -0.054544}, "9586": {"name": "Imperial Wharf", "asc": "IMWr", "lat": 51.475102, "lon": -0.182932}, "9587": {"name": "Shepherd's Bush NR", "asc": "SPBr", "lat": 51.505167, "lon": -0.217687}, "1395": {"name": "Bushey", "asc": "BSHr", "lat": 51.645649, "lon": -0.385195}, "1398": {"name": "Hatch End", "asc": "HTEr", "lat": 51.60958, "lon": -0.368783}, "1402": {"name": "Watford Junction", "asc": "WFJr", "lat": 51.663945, "lon": -0.396112}, "1404": {"name": "Acton Central", "asc": "ACCr", "lat": 51.508712, "lon": -0.262812}, "1409": {"name": "Gospel Oak", "asc": "GPOr", "lat": 51.55549, "lon": -0.151572}, "1413": {"name": "Hampstead Heath", "asc": "HDHr", "lat": 51.555239, "lon": -0.165358}, "1415": {"name": "Kilburn High Road", "asc": "KBNr", "lat": 51.537738, "lon": -0.191296}, "1421": {"name": "West Hampstead LO", "asc": "WHDr", "lat": 51.547299, "lon": -0.192013}, "1429": {"name": "Dalston Kingsland", "asc": "DLKr", "lat": 51.548193, "lon": -0.076333}, "1434": {"name": "Headstone Lane", "asc": "HDLr", "lat": 51.602554, "lon": -0.356949}, "1437": {"name": "Brondesbury", "asc": "BSYr", "lat": 51.545052, "lon": -0.202645}, "1438": {"name": "Brondesbury Park", "asc": "BSPr", "lat": 51.540477, "lon": -0.210425}, "1439": {"name": "Caledonian Road & Barnsbury", "asc": "CIRr", "lat": 51.543418, "lon": -0.115113}, "1440": {"name": "Camden Road", "asc": "CMDr", "lat": 51.541937, "lon": -0.139502}, "1441": {"name": "Canonbury", "asc": "CNNr", "lat": 51.54852, "lon": -0.093065}, "1442": {"name": "Carpenders Park", "asc": "CPKr", "lat": 51.627912, "lon": -0.385507}, "1443": {"name": "Dalston Junction", "asc": "DLJr", "lat": 51.545284, "lon": -0.074971}, "1444": {"name": "Euston NR", "asc": "EUSr", "lat": 51.528805, "lon": -0.134257}, "1445": {"name": "Finchley Road & Frognal", "asc": "FNYr", "lat": 51.550229, "lon": -0.183171}, "1448": {"name": "Kensal Rise", "asc": "KNRr", "lat": 51.534474, "lon": -0.220104}, "1449": {"name": "Kentish Town West", "asc": "KTWr", "lat": 51.546709, "lon": -0.146707}, "1451": {"name": "South Hampstead", "asc": "SOHr", "lat": 51.541375, "lon": -0.17875}, "1452": {"name": "South Acton", "asc": "SATr", "lat": 51.499726, "lon": -0.269897}, "1455": {"name": "Watford High Street", "asc": "WFHr", "lat": 51.652232, "lon": -0.392492}, "5595": {"name": "Clapham Junction", "asc": "CLJr", "lat": 51.46446, "lon": -0.170513}, "6814": {"name": "Cheshunt", "asc": "CHNr", "lat": 51.702702, "lon": -0.023866}, "1524": {"name": "Upper Holloway", "asc": "UHLr", "lat": 51.56347, "lon": -0.129649}, "729": {"name": "Tottenham Hale LU", "asc": "TTHu", "lat": 51.588119, "lon": -0.059937}, "730": {"name": "Totteridge & Whetstone", "asc": "TOTu", "lat": 51.63072, "lon": -0.179176}, "733": {"name": "Tufnell Park", "asc": "TPKu", "lat": 51.556803, "lon": -0.138463}, "735": {"name": "Turnpike Lane", "asc": "TPLu", "lat": 51.59015, "lon": -0.102742}, "9846": {"name": "Heathrow Terminal 5 EL", "asc": "HWVr", "lat": 51.472226, "lon": -0.487724}, "742": {"name": "Walthamstow Central", "asc": "WALu", "lat": 51.582893, "lon": -0.019989}, "745": {"name": "Warren Street", "asc": "WSTu", "lat": 51.524719, "lon": -0.138532}, "9473": {"name": "George Street", "asc": "GSTt", "lat": 51.373897, "lon": -0.098908}, "756": {"name": "West Finchley", "asc": "WFYu", "lat": 51.609433, "lon": -0.188333}, "6867": {"name": "Hackney Downs", "asc": "HACr", "lat": 51.548527, "lon": -0.060598}, "6879": {"name": "Harold Wood", "asc": "HROr", "lat": 51.592824, "lon": 0.232843}, "6888": {"name": "Shenfield", "asc": "SNFr", "lat": 51.630743, "lon": 0.329758}, "6913": {"name": "Bush Hill Park", "asc": "BHKr", "lat": 51.641781, "lon": -0.069441}, "6919": {"name": "Highams Park", "asc": "HIPr", "lat": 51.609128, "lon": -5.8e-05}}, "branches": [{"line": "BAK", "dir": "N", "branch_id": 8079, "branch_name": "Elephant & Castle < > Queen's Park", "mode": "u", "is_plot_dir": false, "mnlcs": [570, 628, 747, 542, 718, 674, 669, 685, 511, 641, 774, 670, 746, 637, 623, 680], "distances_m": [820.0, 630.0, 710.0, 370.0, 550.0, 970.0, 870.0, 880.0, 500.0, 450.0, 720.0, 880.0, 790.0, 880.0, 790.0]}, {"line": "BAK", "dir": "N", "branch_id": 8078, "branch_name": "Queen's Park < > Stonebridge Park", "mode": "u", "is_plot_dir": false, "mnlcs": [680, 617, 766, 596, 717], "distances_m": [1320.0, 1500.0, 1050.0, 1530.0]}, {"line": "BAK", "dir": "N", "branch_id": 8077, "branch_name": "Stonebridge Park < > Harrow & Wealdstone", "mode": "u", "is_plot_dir": false, "mnlcs": [717, 751, 659, 709, 620, 597], "distances_m": [1710.0, 1270.0, 900.0, 1400.0, 1740.0]}, {"line": "BAK", "dir": "S", "branch_id": 8077, "branch_name": "Stonebridge Park < > Harrow & Wealdstone", "mode": "u", "is_plot_dir": true, "mnlcs": [597, 620, 709, 659, 751, 717], "distances_m": [1740.0, 1400.0, 900.0, 1270.0, 1710.0]}, {"line": "BAK", "dir": "S", "branch_id": 8078, "branch_name": "Queen's Park < > Stonebridge Park", "mode": "u", "is_plot_dir": true, "mnlcs": [717, 596, 766, 617, 680], "distances_m": [1530.0, 1050.0, 1500.0, 1320.0]}, {"line": "BAK", "dir": "S", "branch_id": 8079, "branch_name": "Elephant & Castle < > Queen's Park", "mode": "u", "is_plot_dir": true, "mnlcs": [680, 623, 637, 746, 670, 774, 641, 511, 685, 669, 674, 718, 542, 747, 628, 570], "distances_m": [790.0, 880.0, 790.0, 880.0, 720.0, 450.0, 500.0, 880.0, 870.0, 970.0, 550.0, 370.0, 710.0, 630.0, 820.0]}, {"line": "CEN", "dir": "E", "branch_id": 8065, "branch_name": "Northolt < > Ruislip Gardens", "mode": "u", "is_plot_dir": false, "mnlcs": [762, 692, 710, 657], "distances_m": [2040.0, 870.0, 2290.0]}, {"line": "CEN", "dir": "E", "branch_id": 8064, "branch_name": "North Acton < > Northolt", "mode": "u", "is_plot_dir": false, "mnlcs": [657, 589, 673, 595, 653], "distances_m": [1790.0, 1690.0, 2110.0, 2490.0]}, {"line": "CEN", "dir": "E", "branch_id": 8063, "branch_name": "North Acton < > Ealing Broadway", "mode": "u", "is_plot_dir": false, "mnlcs": [560, 753, 653], "distances_m": [1530.0, 1770.0]}, {"line": "CEN", "dir": "E", "branch_id": 8062, "branch_name": "White City < > North Acton", "mode": "u", "is_plot_dir": false, "mnlcs": [653, 563, 764], "distances_m": [1110.0, 2060.0]}, {"line": "CEN", "dir": "E", "branch_id": 8061, "branch_name": "Leytonstone < > White City", "mode": "u", "is_plot_dir": false, "mnlcs": [764, 700, 608, 663, 681, 629, 640, 524, 669, 728, 607, 541, 697, 513, 634, 520, 642, 719, 632, 633], "distances_m": [1160.0, 870.0, 610.0, 690.0, 900.0, 1210.0, 550.0, 660.0, 580.0, 890.0, 400.0, 1030.0, 740.0, 740.0, 2270.0, 1640.0, 2830.0, 2090.0, 1630.0]}, {"line": "CEN", "dir": "E", "branch_id": 8060, "branch_name": "Woodford < > Leytonstone", "mode": "u", "is_plot_dir": false, "mnlcs": [633, 703, 712, 769], "distances_m": [1580.0, 1290.0, 1800.0]}, {"line": "CEN", "dir": "E", "branch_id": 8059, "branch_name": "Epping < > Woodford", "mode": "u", "is_plot_dir": false, "mnlcs": [769, 531, 636, 557, 725, 572], "distances_m": [2320.0, 1830.0, 2030.0, 3350.0, 2540.0]}, {"line": "CEN", "dir": "E", "branch_id": 8058, "branch_name": "Newbury Park < > Leytonstone", "mode": "u", "is_plot_dir": false, "mnlcs": [633, 743, 684, 582, 650], "distances_m": [1720.0, 1220.0, 1270.0, 2370.0]}, {"line": "CEN", "dir": "E", "branch_id": 8057, "branch_name": "Hainault < > Newbury Park", "mode": "u", "is_plot_dir": false, "mnlcs": [650, 515, 576, 592], "distances_m": [1110.0, 1220.0, 760.0]}, {"line": "CEN", "dir": "E", "branch_id": 8056, "branch_name": "Woodford < > Hainault", "mode": "u", "is_plot_dir": false, "mnlcs": [592, 587, 544, 688, 769], "distances_m": [1130.0, 1320.0, 2280.0, 1340.0]}, {"line": "CEN", "dir": "W", "branch_id": 8056, "branch_name": "Woodford < > Hainault", "mode": "u", "is_plot_dir": true, "mnlcs": [769, 688, 544, 587, 592], "distances_m": [1340.0, 2280.0, 1320.0, 1130.0]}, {"line": "CEN", "dir": "W", "branch_id": 8057, "branch_name": "Hainault < > Newbury Park", "mode": "u", "is_plot_dir": true, "mnlcs": [592, 576, 515, 650], "distances_m": [760.0, 1220.0, 1110.0]}, {"line": "CEN", "dir": "W", "branch_id": 8058, "branch_name": "Newbury Park < > Leytonstone", "mode": "u", "is_plot_dir": true, "mnlcs": [650, 582, 684, 743, 633], "distances_m": [2370.0, 1270.0, 1220.0, 1720.0]}, {"line": "CEN", "dir": "W", "branch_id": 8059, "branch_name": "Epping < > Woodford", "mode": "u", "is_plot_dir": true, "mnlcs": [572, 725, 557, 636, 531, 769], "distances_m": [2540.0, 3350.0, 2030.0, 1830.0, 2320.0]}, {"line": "CEN", "dir": "W", "branch_id": 8060, "branch_name": "Woodford < > Leytonstone", "mode": "u", "is_plot_dir": true, "mnlcs": [769, 712, 703, 633], "distances_m": [1800.0, 1290.0, 1580.0]}, {"line": "CEN", "dir": "W", "branch_id": 8061, "branch_name": "Leytonstone < > White City", "mode": "u", "is_plot_dir": true, "mnlcs": [633, 632, 719, 642, 520, 634, 513, 697, 541, 607, 728, 669, 524, 640, 629, 681, 663, 608, 700, 764], "distances_m": [1630.0, 2090.0, 2830.0, 1640.0, 2270.0, 740.0, 740.0, 1030.0, 400.0, 890.0, 580.0, 660.0, 550.0, 1210.0, 900.0, 690.0, 610.0, 870.0, 1160.0]}, {"line": "CEN", "dir": "W", "branch_id": 8062, "branch_name": "White City < > North Acton", "mode": "u", "is_plot_dir": true, "mnlcs": [764, 563, 653], "distances_m": [2060.0, 1110.0]}, {"line": "CEN", "dir": "W", "branch_id": 8063, "branch_name": "North Acton < > Ealing Broadway", "mode": "u", "is_plot_dir": true, "mnlcs": [653, 753, 560], "distances_m": [1770.0, 1530.0]}, {"line": "CEN", "dir": "W", "branch_id": 8064, "branch_name": "North Acton < > Northolt", "mode": "u", "is_plot_dir": true, "mnlcs": [653, 595, 673, 589, 657], "distances_m": [2490.0, 2110.0, 1690.0, 1790.0]}, {"line": "CEN", "dir": "W", "branch_id": 8065, "branch_name": "Northolt < > Ruislip Gardens", "mode": "u", "is_plot_dir": true, "mnlcs": [657, 710, 692, 762], "distances_m": [2290.0, 870.0, 2040.0]}, {"line": "DIS", "dir": "E", "branch_id": 8560, "branch_name": "Turnham Green < > Ealing Broadway", "mode": "u", "is_plot_dir": false, "mnlcs": [560, 561, 500, 545, 734], "distances_m": [1500.0, 1030.0, 1210.0, 950.0]}, {"line": "DIS", "dir": "E", "branch_id": 8555, "branch_name": "Turnham Green < > Richmond", "mode": "u", "is_plot_dir": false, "mnlcs": [686, 621, 591, 734], "distances_m": [2140.0, 1710.0, 1590.0]}, {"line": "DIS", "dir": "E", "branch_id": 8550, "branch_name": "Earl's Court < > Turnham Green", "mode": "u", "is_plot_dir": false, "mnlcs": [734, 713, 682, 593, 516, 760, 562], "distances_m": [550.0, 770.0, 930.0, 680.0, 640.0, 900.0]}, {"line": "DIS", "dir": "E", "branch_id": 8545, "branch_name": "Earl's Court < > Wimbledon", "mode": "u", "is_plot_dir": false, "mnlcs": [767, 768, 705, 567, 678, 672, 581, 755, 562], "distances_m": [1500.0, 1450.0, 1530.0, 1110.0, 950.0, 790.0, 840.0, 600.0]}, {"line": "DIS", "dir": "E", "branch_id": 8544, "branch_name": "Earl's Court < > Olympia", "mode": "u", "is_plot_dir": false, "mnlcs": [618, 562], "distances_m": [1540.0]}, {"line": "DIS", "dir": "E", "branch_id": 8542, "branch_name": "High St Kensington < > Earl's Court", "mode": "u", "is_plot_dir": false, "mnlcs": [562, 605], "distances_m": [1260.0]}, {"line": "DIS", "dir": "E", "branch_id": 8540, "branch_name": "Edgware Road < > High St Kensington", "mode": "u", "is_plot_dir": false, "mnlcs": [605, 663, 517, 670, 569], "distances_m": [930.0, 790.0, 980.0, 820.0]}, {"line": "DIS", "dir": "E", "branch_id": 8538, "branch_name": "Gloucester Road < > Earl's Court", "mode": "u", "is_plot_dir": false, "mnlcs": [562, 583], "distances_m": [790.0]}, {"line": "DIS", "dir": "E", "branch_id": 8535, "branch_name": "Tower Hill < > Gloucester Road", "mode": "u", "is_plot_dir": false, "mnlcs": [583, 708, 702, 741, 695, 761, 542, 724, 521, 639, 536, 513, 731], "distances_m": [710.0, 1220.0, 1050.0, 720.0, 760.0, 690.0, 710.0, 760.0, 610.0, 340.0, 340.0, 680.0]}, {"line": "DIS", "dir": "E", "branch_id": 8530, "branch_name": "Aldgate East < > Tower Hill", "mode": "u", "is_plot_dir": false, "mnlcs": [731, 503], "distances_m": [800.0]}, {"line": "DIS", "dir": "E", "branch_id": 8525, "branch_name": "Whitechapel < > Aldgate East", "mode": "u", "is_plot_dir": false, "mnlcs": [503, 763], "distances_m": [820.0]}, {"line": "DIS", "dir": "E", "branch_id": 8520, "branch_name": "West Ham < > Whitechapel", "mode": "u", "is_plot_dir": false, "mnlcs": [763, 715, 642, 528, 530, 757], "distances_m": [1000.0, 1050.0, 550.0, 1010.0, 1370.0]}, {"line": "DIS", "dir": "E", "branch_id": 8515, "branch_name": "Plaistow < > West Ham", "mode": "u", "is_plot_dir": false, "mnlcs": [757, 676], "distances_m": [760.0]}, {"line": "DIS", "dir": "E", "branch_id": 8510, "branch_name": "Barking < > Plaistow", "mode": "u", "is_plot_dir": false, "mnlcs": [676, 739, 566, 514], "distances_m": [1290.0, 1400.0, 2290.0]}, {"line": "DIS", "dir": "E", "branch_id": 8505, "branch_name": "Dagenham East < > Barking", "mode": "u", "is_plot_dir": false, "mnlcs": [514, 738, 518, 556, 555], "distances_m": [1380.0, 1870.0, 1370.0, 1350.0]}, {"line": "DIS", "dir": "E", "branch_id": 8500, "branch_name": "Upminster < > Dagenham East", "mode": "u", "is_plot_dir": false, "mnlcs": [555, 571, 610, 737, 736], "distances_m": [2370.0, 1500.0, 1260.0, 1240.0]}, {"line": "DIS", "dir": "W", "branch_id": 8500, "branch_name": "Upminster < > Dagenham East", "mode": "u", "is_plot_dir": true, "mnlcs": [736, 737, 610, 571, 555], "distances_m": [1240.0, 1260.0, 1500.0, 2370.0]}, {"line": "DIS", "dir": "W", "branch_id": 8505, "branch_name": "Dagenham East < > Barking", "mode": "u", "is_plot_dir": true, "mnlcs": [555, 556, 518, 738, 514], "distances_m": [1350.0, 1370.0, 1870.0, 1380.0]}, {"line": "DIS", "dir": "W", "branch_id": 8510, "branch_name": "Barking < > Plaistow", "mode": "u", "is_plot_dir": true, "mnlcs": [514, 566, 739, 676], "distances_m": [2290.0, 1400.0, 1290.0]}, {"line": "DIS", "dir": "W", "branch_id": 8515, "branch_name": "Plaistow < > West Ham", "mode": "u", "is_plot_dir": true, "mnlcs": [676, 757], "distances_m": [760.0]}, {"line": "DIS", "dir": "W", "branch_id": 8520, "branch_name": "West Ham < > Whitechapel", "mode": "u", "is_plot_dir": true, "mnlcs": [757, 530, 528, 642, 715, 763], "distances_m": [1370.0, 1010.0, 550.0, 1050.0, 1000.0]}, {"line": "DIS", "dir": "W", "branch_id": 8525, "branch_name": "Whitechapel < > Aldgate East", "mode": "u", "is_plot_dir": true, "mnlcs": [763, 503], "distances_m": [820.0]}, {"line": "DIS", "dir": "W", "branch_id": 8530, "branch_name": "Aldgate East < > Tower Hill", "mode": "u", "is_plot_dir": true, "mnlcs": [503, 731], "distances_m": [800.0]}, {"line": "DIS", "dir": "W", "branch_id": 8535, "branch_name": "Tower Hill < > Gloucester Road", "mode": "u", "is_plot_dir": true, "mnlcs": [731, 513, 536, 639, 521, 724, 542, 761, 695, 741, 702, 708, 583], "distances_m": [680.0, 340.0, 310.0, 610.0, 760.0, 710.0, 690.0, 760.0, 720.0, 1050.0, 1220.0, 710.0]}, {"line": "DIS", "dir": "W", "branch_id": 8538, "branch_name": "Gloucester Road < > Earl's Court", "mode": "u", "is_plot_dir": true, "mnlcs": [583, 562], "distances_m": [790.0]}, {"line": "DIS", "dir": "W", "branch_id": 8540, "branch_name": "Edgware Road < > High St Kensington", "mode": "u", "is_plot_dir": true, "mnlcs": [569, 670, 517, 663, 605], "distances_m": [850.0, 980.0, 790.0, 930.0]}, {"line": "DIS", "dir": "W", "branch_id": 8542, "branch_name": "High St Kensington < > Earl's Court", "mode": "u", "is_plot_dir": true, "mnlcs": [605, 562], "distances_m": [1260.0]}, {"line": "DIS", "dir": "W", "branch_id": 8544, "branch_name": "Earl's Court < > Olympia", "mode": "u", "is_plot_dir": true, "mnlcs": [562, 618], "distances_m": [1540.0]}, {"line": "DIS", "dir": "W", "branch_id": 8545, "branch_name": "Earl's Court < > Wimbledon", "mode": "u", "is_plot_dir": true, "mnlcs": [562, 755, 581, 672, 678, 567, 705, 768, 767], "distances_m": [600.0, 840.0, 790.0, 950.0, 1110.0, 1530.0, 1450.0, 1500.0]}, {"line": "DIS", "dir": "W", "branch_id": 8550, "branch_name": "Earl's Court < > Turnham Green", "mode": "u", "is_plot_dir": true, "mnlcs": [562, 760, 516, 593, 682, 713, 734], "distances_m": [900.0, 640.0, 680.0, 930.0, 770.0, 550.0]}, {"line": "DIS", "dir": "W", "branch_id": 8555, "branch_name": "Turnham Green < > Richmond", "mode": "u", "is_plot_dir": true, "mnlcs": [734, 591, 621, 686], "distances_m": [1590.0, 1710.0, 2140.0]}, {"line": "DIS", "dir": "W", "branch_id": 8560, "branch_name": "Turnham Green < > Ealing Broadway", "mode": "u", "is_plot_dir": true, "mnlcs": [734, 545, 500, 561, 560], "distances_m": [950.0, 1210.0, 1030.0, 1500.0]}, {"line": "DLR", "dir": "O", "branch_id": 8037, "branch_name": "Stratford < > West India Quay", "mode": "d", "is_plot_dir": false, "mnlcs": [719, 859, 851, 867, 853, 850, 858, 866], "distances_m": [1010.0, 996.0, 623.0, 821.0, 526.0, 714.0, 295.0]}, {"line": "DLR", "dir": "O", "branch_id": 8036, "branch_name": "West India Quay < > Canary Wharf S", "mode": "d", "is_plot_dir": false, "mnlcs": [866, 842], "distances_m": [199.0]}, {"line": "DLR", "dir": "O", "branch_id": 8035, "branch_name": "Tower < > Shadwell", "mode": "d", "is_plot_dir": false, "mnlcs": [864, 860], "distances_m": [1237.0]}, {"line": "DLR", "dir": "O", "branch_id": 8034, "branch_name": "Bank < > Shadwell", "mode": "d", "is_plot_dir": false, "mnlcs": [513, 860], "distances_m": [2377.0]}, {"line": "DLR", "dir": "O", "branch_id": 8033, "branch_name": "Shadwell < > Westferry", "mode": "d", "is_plot_dir": false, "mnlcs": [860, 862, 865], "distances_m": [1118.0, 944.0]}, {"line": "DLR", "dir": "O", "branch_id": 8032, "branch_name": "Westferry > Canary Wharf C", "mode": "d", "is_plot_dir": false, "mnlcs": [865, 842], "distances_m": [593.0]}, {"line": "DLR", "dir": "O", "branch_id": 8030, "branch_name": "West India Quay < > Canary Wharf C", "mode": "d", "is_plot_dir": false, "mnlcs": [866, 842], "distances_m": [199.0]}, {"line": "DLR", "dir": "O", "branch_id": 8029, "branch_name": "Canary Wharf S < > Heron Quays", "mode": "d", "is_plot_dir": false, "mnlcs": [842, 855], "distances_m": [280.0]}, {"line": "DLR", "dir": "O", "branch_id": 8028, "branch_name": "Canary Wharf C < > Heron Quays", "mode": "d", "is_plot_dir": false, "mnlcs": [842, 855], "distances_m": [280.0]}, {"line": "DLR", "dir": "O", "branch_id": 8027, "branch_name": "Heron Quays < > Mudchute", "mode": "d", "is_plot_dir": false, "mnlcs": [855, 861, 854, 857], "distances_m": [574.0, 595.0, 489.0]}, {"line": "DLR", "dir": "O", "branch_id": 8026, "branch_name": "Mudchute < > Lewisham", "mode": "d", "is_plot_dir": false, "mnlcs": [857, 856, 879, 928, 897, 898, 940], "distances_m": [447.0, 775.0, 661.0, 744.0, 817.0, 460.0]}, {"line": "DLR", "dir": "O", "branch_id": 8025, "branch_name": "Westferry < > Poplar", "mode": "d", "is_plot_dir": false, "mnlcs": [865, 858], "distances_m": [736.0]}, {"line": "DLR", "dir": "O", "branch_id": 8024, "branch_name": "Poplar < > Canning Town HL", "mode": "d", "is_plot_dir": false, "mnlcs": [858, 882, 883, 884], "distances_m": [677.0, 391.0, 1102.0]}, {"line": "DLR", "dir": "O", "branch_id": 8023, "branch_name": "Stratford Intl < > Canning Town LL", "mode": "d", "is_plot_dir": false, "mnlcs": [504, 719, 749, 750, 757, 889, 884], "distances_m": [1324.0, 437.0, 621.0, 587.0, 774.0, 783.0]}, {"line": "DLR", "dir": "O", "branch_id": 8022, "branch_name": "Canning Town HL < > Royal Victoria", "mode": "d", "is_plot_dir": false, "mnlcs": [884, 886], "distances_m": [1000.0]}, {"line": "DLR", "dir": "O", "branch_id": 8021, "branch_name": "Canning Town LL < > Royal Victoria", "mode": "d", "is_plot_dir": false, "mnlcs": [884, 886], "distances_m": [1000.0]}, {"line": "DLR", "dir": "O", "branch_id": 8020, "branch_name": "Royal Victoria < > Beckton", "mode": "d", "is_plot_dir": false, "mnlcs": [886, 887, 888, 890, 891, 893, 894, 895], "distances_m": [560.0, 490.0, 920.0, 650.0, 620.0, 750.0, 1200.0]}, {"line": "DLR", "dir": "O", "branch_id": 8019, "branch_name": "Canning Town HL < > West Silvertown", "mode": "d", "is_plot_dir": false, "mnlcs": [884, 559], "distances_m": [1660.0]}, {"line": "DLR", "dir": "O", "branch_id": 8018, "branch_name": "Canning Town LL < > West Silvertown", "mode": "d", "is_plot_dir": false, "mnlcs": [884, 559], "distances_m": [1660.0]}, {"line": "DLR", "dir": "O", "branch_id": 8017, "branch_name": "Woolwich < > West Silvertown", "mode": "d", "is_plot_dir": false, "mnlcs": [559, 538, 533, 523, 573], "distances_m": [772.0, 1104.0, 1040.0, 2418.0]}, {"line": "DLR", "dir": "I", "branch_id": 8017, "branch_name": "Woolwich < > West Silvertown", "mode": "d", "is_plot_dir": true, "mnlcs": [573, 523, 533, 538, 559], "distances_m": [2418.0, 1040.0, 1104.0, 772.0]}, {"line": "DLR", "dir": "I", "branch_id": 8018, "branch_name": "Canning Town LL < > West Silvertown", "mode": "d", "is_plot_dir": true, "mnlcs": [559, 884], "distances_m": [1660.0]}, {"line": "DLR", "dir": "I", "branch_id": 8019, "branch_name": "Canning Town HL < > West Silvertown", "mode": "d", "is_plot_dir": true, "mnlcs": [559, 884], "distances_m": [1660.0]}, {"line": "DLR", "dir": "I", "branch_id": 8020, "branch_name": "Royal Victoria < > Beckton", "mode": "d", "is_plot_dir": true, "mnlcs": [895, 894, 893, 891, 890, 888, 887, 886], "distances_m": [1200.0, 750.0, 620.0, 650.0, 920.0, 490.0, 560.0]}, {"line": "DLR", "dir": "I", "branch_id": 8021, "branch_name": "Canning Town LL < > Royal Victoria", "mode": "d", "is_plot_dir": true, "mnlcs": [886, 884], "distances_m": [1000.0]}, {"line": "DLR", "dir": "I", "branch_id": 8022, "branch_name": "Canning Town HL < > Royal Victoria", "mode": "d", "is_plot_dir": true, "mnlcs": [886, 884], "distances_m": [1000.0]}, {"line": "DLR", "dir": "I", "branch_id": 8023, "branch_name": "Stratford Intl < > Canning Town LL", "mode": "d", "is_plot_dir": true, "mnlcs": [884, 889, 757, 750, 749, 719, 504], "distances_m": [783.0, 774.0, 587.0, 621.0, 437.0, 1324.0]}, {"line": "DLR", "dir": "I", "branch_id": 8024, "branch_name": "Poplar < > Canning Town HL", "mode": "d", "is_plot_dir": true, "mnlcs": [884, 883, 882, 858], "distances_m": [1102.0, 391.0, 677.0]}, {"line": "DLR", "dir": "I", "branch_id": 8025, "branch_name": "Westferry < > Poplar", "mode": "d", "is_plot_dir": true, "mnlcs": [858, 865], "distances_m": [736.0]}, {"line": "DLR", "dir": "I", "branch_id": 8026, "branch_name": "Mudchute < > Lewisham", "mode": "d", "is_plot_dir": true, "mnlcs": [940, 898, 897, 928, 879, 856, 857], "distances_m": [460.0, 817.0, 744.0, 661.0, 775.0, 447.0]}, {"line": "DLR", "dir": "I", "branch_id": 8027, "branch_name": "Heron Quays < > Mudchute", "mode": "d", "is_plot_dir": true, "mnlcs": [857, 854, 861, 855], "distances_m": [489.0, 595.0, 574.0]}, {"line": "DLR", "dir": "I", "branch_id": 8028, "branch_name": "Canary Wharf C < > Heron Quays", "mode": "d", "is_plot_dir": true, "mnlcs": [855, 842], "distances_m": [280.0]}, {"line": "DLR", "dir": "I", "branch_id": 8029, "branch_name": "Canary Wharf S < > Heron Quays", "mode": "d", "is_plot_dir": true, "mnlcs": [855, 842], "distances_m": [280.0]}, {"line": "DLR", "dir": "I", "branch_id": 8030, "branch_name": "West India Quay < > Canary Wharf C", "mode": "d", "is_plot_dir": true, "mnlcs": [842, 866], "distances_m": [199.0]}, {"line": "DLR", "dir": "I", "branch_id": 8031, "branch_name": "Westferry < > West India Quay", "mode": "d", "is_plot_dir": true, "mnlcs": [866, 865], "distances_m": [593.0]}, {"line": "DLR", "dir": "I", "branch_id": 8033, "branch_name": "Shadwell < > Westferry", "mode": "d", "is_plot_dir": true, "mnlcs": [865, 862, 860], "distances_m": [944.0, 1118.0]}, {"line": "DLR", "dir": "I", "branch_id": 8034, "branch_name": "Bank < > Shadwell", "mode": "d", "is_plot_dir": true, "mnlcs": [860, 513], "distances_m": [2377.0]}, {"line": "DLR", "dir": "I", "branch_id": 8035, "branch_name": "Tower < > Shadwell", "mode": "d", "is_plot_dir": true, "mnlcs": [860, 864], "distances_m": [1237.0]}, {"line": "DLR", "dir": "I", "branch_id": 8036, "branch_name": "West India Quay < > Canary Wharf S", "mode": "d", "is_plot_dir": true, "mnlcs": [842, 866], "distances_m": [199.0]}, {"line": "DLR", "dir": "I", "branch_id": 8037, "branch_name": "Stratford < > West India Quay", "mode": "d", "is_plot_dir": true, "mnlcs": [866, 858, 850, 853, 867, 851, 859, 719], "distances_m": [295.0, 714.0, 526.0, 821.0, 623.0, 996.0, 1010.0]}, {"line": "ELL", "dir": "N", "branch_id": 3200, "branch_name": "Norwood Jn < > West Croydon", "mode": "o", "is_plot_dir": false, "mnlcs": [5411, 5376], "distances_m": [2372.0]}, {"line": "ELL", "dir": "N", "branch_id": 3167, "branch_name": "Sydenham < > Norwood Jn", "mode": "o", "is_plot_dir": false, "mnlcs": [5376, 5397, 5378, 5437], "distances_m": [1770.0, 643.0, 1288.0]}, {"line": "ELL", "dir": "N", "branch_id": 3165, "branch_name": "Sydenham < > Crystal Palace", "mode": "o", "is_plot_dir": false, "mnlcs": [5356, 5437], "distances_m": [1850.0]}, {"line": "ELL", "dir": "N", "branch_id": 3038, "branch_name": "Wandsworth Road < > Battersea Park", "mode": "o", "is_plot_dir": false, "mnlcs": [5420, 5372], "distances_m": [1105.0]}, {"line": "ELL", "dir": "N", "branch_id": 3037, "branch_name": "Wandsworth Road < > Clapham Jn", "mode": "o", "is_plot_dir": false, "mnlcs": [5595, 5372], "distances_m": [2754.0]}, {"line": "ELL", "dir": "N", "branch_id": 3031, "branch_name": "New Cross Gate < > Sydenham", "mode": "o", "is_plot_dir": false, "mnlcs": [5437, 5362, 5418, 5404, 5345], "distances_m": [1223.0, 1508.0, 1670.0, 1287.0]}, {"line": "ELL", "dir": "N", "branch_id": 3025, "branch_name": "Peckham Rye < > Wandsworth Road", "mode": "o", "is_plot_dir": false, "mnlcs": [5372, 5301, 5421, 5423], "distances_m": [542.0, 3178.0, 1347.0]}, {"line": "ELL", "dir": "N", "branch_id": 3022, "branch_name": "Queens Rd Peckham < > Peckham Rye", "mode": "o", "is_plot_dir": false, "mnlcs": [5423, 5424], "distances_m": [1147.0]}, {"line": "ELL", "dir": "N", "branch_id": 3006, "branch_name": "Surrey Quays < > Queens Rd Peckham", "mode": "o", "is_plot_dir": false, "mnlcs": [5424, 1083], "distances_m": [2392.0]}, {"line": "ELL", "dir": "N", "branch_id": 3005, "branch_name": "Surrey Quays < > New Cross Gate", "mode": "o", "is_plot_dir": false, "mnlcs": [5345, 1083], "distances_m": [1932.0]}, {"line": "ELL", "dir": "N", "branch_id": 593, "branch_name": "Surrey Quays < > New Cross", "mode": "o", "is_plot_dir": false, "mnlcs": [5150, 1083], "distances_m": [1942.0]}, {"line": "ELL", "dir": "N", "branch_id": 592, "branch_name": "Dalston Jn < > Surrey Quays", "mode": "o", "is_plot_dir": false, "mnlcs": [1083, 788, 1039, 1085, 1082, 763, 1024, 1023, 1022, 1443], "distances_m": [340.0, 200.0, 310.0, 480.0, 610.0, 710.0, 690.0, 450.0, 790.0]}, {"line": "ELL", "dir": "N", "branch_id": 591, "branch_name": "Highbury < > Dalston Jn", "mode": "o", "is_plot_dir": false, "mnlcs": [1443, 1441, 603], "distances_m": [1328.0, 865.0]}, {"line": "ELL", "dir": "S", "branch_id": 591, "branch_name": "Highbury < > Dalston Jn", "mode": "o", "is_plot_dir": true, "mnlcs": [603, 1441, 1443], "distances_m": [865.0, 1328.0]}, {"line": "ELL", "dir": "S", "branch_id": 592, "branch_name": "Dalston Jn < > Surrey Quays", "mode": "o", "is_plot_dir": true, "mnlcs": [1443, 1022, 1023, 1024, 763, 1082, 1085, 1039, 788, 1083], "distances_m": [790.0, 450.0, 690.0, 710.0, 610.0, 480.0, 310.0, 200.0, 340.0]}, {"line": "ELL", "dir": "S", "branch_id": 593, "branch_name": "Surrey Quays < > New Cross", "mode": "o", "is_plot_dir": true, "mnlcs": [1083, 5150], "distances_m": [1942.0]}, {"line": "ELL", "dir": "S", "branch_id": 3005, "branch_name": "Surrey Quays < > New Cross Gate", "mode": "o", "is_plot_dir": true, "mnlcs": [1083, 5345], "distances_m": [1814.0]}, {"line": "ELL", "dir": "S", "branch_id": 3006, "branch_name": "Surrey Quays < > Queens Rd Peckham", "mode": "o", "is_plot_dir": true, "mnlcs": [1083, 5424], "distances_m": [2392.0]}, {"line": "ELL", "dir": "S", "branch_id": 3022, "branch_name": "Queens Rd Peckham < > Peckham Rye", "mode": "o", "is_plot_dir": true, "mnlcs": [5424, 5423], "distances_m": [1142.0]}, {"line": "ELL", "dir": "S", "branch_id": 3025, "branch_name": "Peckham Rye < > Wandsworth Road", "mode": "o", "is_plot_dir": true, "mnlcs": [5423, 5421, 5301, 5372], "distances_m": [1347.0, 3178.0, 623.0]}, {"line": "ELL", "dir": "S", "branch_id": 3031, "branch_name": "New Cross Gate < > Sydenham", "mode": "o", "is_plot_dir": true, "mnlcs": [5345, 5404, 5418, 5362, 5437], "distances_m": [1287.0, 1670.0, 1509.0, 1223.0]}, {"line": "ELL", "dir": "S", "branch_id": 3037, "branch_name": "Wandsworth Road < > Clapham Jn", "mode": "o", "is_plot_dir": true, "mnlcs": [5372, 5595], "distances_m": [2754.0]}, {"line": "ELL", "dir": "S", "branch_id": 3038, "branch_name": "Wandsworth Road < > Battersea Park", "mode": "o", "is_plot_dir": true, "mnlcs": [5372, 5420], "distances_m": [1800.0]}, {"line": "ELL", "dir": "S", "branch_id": 3165, "branch_name": "Sydenham < > Crystal Palace", "mode": "o", "is_plot_dir": true, "mnlcs": [5437, 5356], "distances_m": [1850.0]}, {"line": "ELL", "dir": "S", "branch_id": 3167, "branch_name": "Sydenham < > Norwood Jn", "mode": "o", "is_plot_dir": true, "mnlcs": [5437, 5378, 5397, 5376], "distances_m": [1287.0, 643.0, 1770.0]}, {"line": "ELL", "dir": "S", "branch_id": 3200, "branch_name": "Norwood Jn < > West Croydon", "mode": "o", "is_plot_dir": true, "mnlcs": [5376, 5411], "distances_m": [3171.0]}, {"line": "EZL", "dir": "E", "branch_id": 1031, "branch_name": "Hayes < > Reading", "mode": "e", "is_plot_dir": false, "mnlcs": [3149, 3155, 3147, 3151, 3176, 3172, 3171, 3170, 3174, 3186], "distances_m": [7955.0, 10911.0, 2816.0, 2446.0, 4040.0, 3572.0, 2381.0, 2474.0, 3384.0]}, {"line": "EZL", "dir": "E", "branch_id": 1024, "branch_name": "Heathrow 23 < > Heathrow 4", "mode": "e", "is_plot_dir": false, "mnlcs": [7091, 7090], "distances_m": [3057.0]}, {"line": "EZL", "dir": "E", "branch_id": 1022, "branch_name": "Heathrow 23 < > Heathrow 5", "mode": "e", "is_plot_dir": false, "mnlcs": [9846, 7090], "distances_m": [2485.0]}, {"line": "EZL", "dir": "E", "branch_id": 1021, "branch_name": "Hayes < > Heathrow 23", "mode": "e", "is_plot_dir": false, "mnlcs": [7090, 3186], "distances_m": [5745.0]}, {"line": "EZL", "dir": "E", "branch_id": 1009, "branch_name": "Acton ML < > Hayes", "mode": "e", "is_plot_dir": false, "mnlcs": [3186, 3187, 3191, 3188, 560, 3000], "distances_m": [2912.0, 2776.0, 1351.0, 1304.0, 2301.0]}, {"line": "EZL", "dir": "E", "branch_id": 1006, "branch_name": "Paddington HL < > Acton ML", "mode": "e", "is_plot_dir": false, "mnlcs": [3000, 3087], "distances_m": [6630.0]}, {"line": "EZL", "dir": "E", "branch_id": 1001, "branch_name": "Paddington LL < > Acton ML", "mode": "e", "is_plot_dir": false, "mnlcs": [3000, 670], "distances_m": [6862.0]}, {"line": "EZL", "dir": "E", "branch_id": 395, "branch_name": "Paddington < > Whitechapel", "mode": "e", "is_plot_dir": false, "mnlcs": [670, 524, 728, 577, 634, 763], "distances_m": [2387.0, 1064.0, 2213.0, 1181.0, 2001.0]}, {"line": "EZL", "dir": "E", "branch_id": 394, "branch_name": "Whitechapel < > Abbey Wood", "mode": "e", "is_plot_dir": false, "mnlcs": [763, 6560, 6561, 6562, 5131], "distances_m": [3467.0, 3312.0, 4036.0, 3293.0]}, {"line": "EZL", "dir": "E", "branch_id": 393, "branch_name": "Whitechapel < > Stratford", "mode": "e", "is_plot_dir": false, "mnlcs": [763, 719], "distances_m": [5670.0]}, {"line": "EZL", "dir": "E", "branch_id": 392, "branch_name": "Stratford < > Liverpool St HL", "mode": "e", "is_plot_dir": false, "mnlcs": [6965, 719], "distances_m": [5867.0]}, {"line": "EZL", "dir": "E", "branch_id": 391, "branch_name": "Shenfield < > Stratford", "mode": "e", "is_plot_dir": false, "mnlcs": [719, 6970, 6876, 6883, 6881, 6893, 6878, 6874, 6886, 6877, 6879, 6872, 6888], "distances_m": [785.0, 1271.0, 1460.0, 1609.0, 1947.0, 1175.0, 1110.0, 3862.0, 1609.0, 2253.0, 5207.0, 3218.0]}, {"line": "EZL", "dir": "W", "branch_id": 391, "branch_name": "Shenfield < > Stratford", "mode": "e", "is_plot_dir": true, "mnlcs": [6888, 6872, 6879, 6877, 6886, 6874, 6878, 6893, 6881, 6883, 6876, 6970, 719], "distances_m": [3218.0, 5207.0, 2253.0, 1609.0, 3862.0, 1110.0, 1175.0, 1947.0, 1609.0, 1286.0, 1609.0, 785.0]}, {"line": "EZL", "dir": "W", "branch_id": 392, "branch_name": "Stratford < > Liverpool St HL", "mode": "e", "is_plot_dir": true, "mnlcs": [719, 6965], "distances_m": [5964.0]}, {"line": "EZL", "dir": "W", "branch_id": 393, "branch_name": "Whitechapel < > Stratford", "mode": "e", "is_plot_dir": true, "mnlcs": [719, 763], "distances_m": [5670.0]}, {"line": "EZL", "dir": "W", "branch_id": 394, "branch_name": "Whitechapel < > Abbey Wood", "mode": "e", "is_plot_dir": true, "mnlcs": [5131, 6562, 6561, 6560, 763], "distances_m": [3293.0, 4036.0, 3312.0, 3467.0]}, {"line": "EZL", "dir": "W", "branch_id": 395, "branch_name": "Paddington < > Whitechapel", "mode": "e", "is_plot_dir": true, "mnlcs": [763, 634, 577, 728, 524, 670], "distances_m": [2001.0, 1181.0, 2213.0, 1064.0, 2387.0]}, {"line": "EZL", "dir": "W", "branch_id": 1001, "branch_name": "Paddington LL < > Acton ML", "mode": "e", "is_plot_dir": true, "mnlcs": [670, 3000], "distances_m": [7913.0]}, {"line": "EZL", "dir": "W", "branch_id": 1006, "branch_name": "Paddington HL < > Acton ML", "mode": "e", "is_plot_dir": true, "mnlcs": [3087, 3000], "distances_m": [6234.0]}, {"line": "EZL", "dir": "W", "branch_id": 1009, "branch_name": "Acton ML < > Hayes", "mode": "e", "is_plot_dir": true, "mnlcs": [3000, 560, 3188, 3191, 3187, 3186], "distances_m": [2309.0, 1307.0, 1240.0, 2784.0, 2912.0]}, {"line": "EZL", "dir": "W", "branch_id": 1021, "branch_name": "Hayes < > Heathrow 23", "mode": "e", "is_plot_dir": true, "mnlcs": [3186, 7090], "distances_m": [5582.0]}, {"line": "EZL", "dir": "W", "branch_id": 1022, "branch_name": "Heathrow 23 < > Heathrow 5", "mode": "e", "is_plot_dir": true, "mnlcs": [7090, 9846], "distances_m": [2485.0]}, {"line": "EZL", "dir": "W", "branch_id": 1024, "branch_name": "Heathrow 23 < > Heathrow 4", "mode": "e", "is_plot_dir": true, "mnlcs": [7090, 7091], "distances_m": [2744.0]}, {"line": "EZL", "dir": "W", "branch_id": 1031, "branch_name": "Hayes < > Reading", "mode": "e", "is_plot_dir": true, "mnlcs": [3186, 3174, 3170, 3171, 3172, 3176, 3151, 3147, 3155, 3149], "distances_m": [3384.0, 2478.0, 2381.0, 3573.0, 4039.0, 2447.0, 2816.0, 10905.0, 7766.0]}, {"line": "GOB", "dir": "E", "branch_id": 130, "branch_name": "Gospel Oak < > Barking", "mode": "o", "is_plot_dir": false, "mnlcs": [1409, 1524, 7406, 7401, 7404, 522, 7407, 7402, 7403, 7408, 7467, 514], "distances_m": [1318.0, 1190.0, 1529.0, 1770.0, 2092.0, 1403.0, 1819.0, 1191.0, 1850.0, 1368.0, 2872.0]}, {"line": "GOB", "dir": "E", "branch_id": 110, "branch_name": "Barking < > Barking Riverside", "mode": "o", "is_plot_dir": false, "mnlcs": [514, 1335], "distances_m": [4552.0]}, {"line": "GOB", "dir": "W", "branch_id": 110, "branch_name": "Barking < > Barking Riverside", "mode": "o", "is_plot_dir": true, "mnlcs": [1335, 514], "distances_m": [4552.0]}, {"line": "GOB", "dir": "W", "branch_id": 130, "branch_name": "Gospel Oak < > Barking", "mode": "o", "is_plot_dir": true, "mnlcs": [514, 7467, 7408, 7403, 7402, 7407, 522, 7404, 7401, 7406, 1524, 1409], "distances_m": [2872.0, 1334.0, 1850.0, 1191.0, 1786.0, 1223.0, 2092.0, 1770.0, 1529.0, 1190.0, 1318.0]}, {"line": "HAM", "dir": "O", "branch_id": 8632, "branch_name": "Baker Street < > Hammersmith", "mode": "u", "is_plot_dir": false, "mnlcs": [773, 585, 775, 599, 630, 627, 754, 690, 670, 569, 511], "distances_m": [820.0, 510.0, 470.0, 540.0, 660.0, 790.0, 980.0, 640.0, 820.0, 720.0]}, {"line": "HAM", "dir": "O", "branch_id": 8630, "branch_name": "Liverpool Street < > Baker Street", "mode": "u", "is_plot_dir": false, "mnlcs": [511, 588, 575, 625, 577, 501, 645, 634], "distances_m": [920.0, 610.0, 850.0, 1850.0, 510.0, 630.0, 510.0]}, {"line": "HAM", "dir": "O", "branch_id": 8625, "branch_name": "Aldgate < > Liverpool Street", "mode": "u", "is_plot_dir": false, "mnlcs": [634, 502], "distances_m": [610.0]}, {"line": "HAM", "dir": "O", "branch_id": 8620, "branch_name": "Tower Hill < > Aldgate (H&C)", "mode": "u", "is_plot_dir": false, "mnlcs": [502, 731], "distances_m": [500.0]}, {"line": "HAM", "dir": "O", "branch_id": 8533, "branch_name": "Aldgate East < > Liverpool Street", "mode": "u", "is_plot_dir": false, "mnlcs": [634, 503], "distances_m": [920.0]}, {"line": "HAM", "dir": "O", "branch_id": 8441, "branch_name": "High St Kensington < > Gloucester Road", "mode": "u", "is_plot_dir": false, "mnlcs": [583, 605], "distances_m": [930.0]}, {"line": "HAM", "dir": "I", "branch_id": 8441, "branch_name": "High St Kensington < > Gloucester Road", "mode": "u", "is_plot_dir": true, "mnlcs": [605, 583], "distances_m": [930.0]}, {"line": "HAM", "dir": "I", "branch_id": 8533, "branch_name": "Aldgate East < > Liverpool Street", "mode": "u", "is_plot_dir": true, "mnlcs": [503, 634], "distances_m": [920.0]}, {"line": "HAM", "dir": "I", "branch_id": 8620, "branch_name": "Tower Hill < > Aldgate (H&C)", "mode": "u", "is_plot_dir": true, "mnlcs": [731, 502], "distances_m": [500.0]}, {"line": "HAM", "dir": "I", "branch_id": 8625, "branch_name": "Aldgate < > Liverpool Street", "mode": "u", "is_plot_dir": true, "mnlcs": [502, 634], "distances_m": [610.0]}, {"line": "HAM", "dir": "I", "branch_id": 8630, "branch_name": "Liverpool Street < > Baker Street", "mode": "u", "is_plot_dir": true, "mnlcs": [634, 645, 501, 577, 625, 575, 588, 511], "distances_m": [510.0, 630.0, 510.0, 1850.0, 850.0, 610.0, 920.0]}, {"line": "HAM", "dir": "I", "branch_id": 8632, "branch_name": "Baker Street < > Hammersmith", "mode": "u", "is_plot_dir": true, "mnlcs": [511, 569, 670, 690, 754, 627, 630, 599, 775, 585, 773], "distances_m": [720.0, 850.0, 640.0, 980.0, 790.0, 660.0, 540.0, 470.0, 510.0, 820.0]}, {"line": "JUB", "dir": "N", "branch_id": 8041, "branch_name": "Stratford < > West Hampstead", "mode": "u", "is_plot_dir": false, "mnlcs": [719, 757, 884, 789, 852, 788, 787, 635, 784, 747, 761, 590, 524, 511, 696, 723, 579, 758], "distances_m": [1540.0, 1580.0, 1710.0, 1710.0, 2410.0, 1060.0, 1930.0, 1250.0, 440.0, 960.0, 1330.0, 1370.0, 1660.0, 2060.0, 920.0, 610.0, 610.0]}, {"line": "JUB", "dir": "N", "branch_id": 8040, "branch_name": "West Hampstead < > Willesden Green", "mode": "u", "is_plot_dir": false, "mnlcs": [758, 622, 765], "distances_m": [1090.0, 1190.0]}, {"line": "JUB", "dir": "N", "branch_id": 8039, "branch_name": "Willesden Green < > Wembley Park", "mode": "u", "is_plot_dir": false, "mnlcs": [765, 558, 649, 752], "distances_m": [1210.0, 850.0, 2280.0]}, {"line": "JUB", "dir": "N", "branch_id": 8038, "branch_name": "Wembley Park < > Stanmore", "mode": "u", "is_plot_dir": false, "mnlcs": [752, 624, 679, 537, 714], "distances_m": [2850.0, 1330.0, 1710.0, 1270.0]}, {"line": "JUB", "dir": "S", "branch_id": 8038, "branch_name": "Wembley Park < > Stanmore", "mode": "u", "is_plot_dir": true, "mnlcs": [714, 537, 679, 624, 752], "distances_m": [1270.0, 1710.0, 1330.0, 2850.0]}, {"line": "JUB", "dir": "S", "branch_id": 8039, "branch_name": "Willesden Green < > Wembley Park", "mode": "u", "is_plot_dir": true, "mnlcs": [752, 649, 558, 765], "distances_m": [2280.0, 850.0, 1210.0]}, {"line": "JUB", "dir": "S", "branch_id": 8040, "branch_name": "West Hampstead < > Willesden Green", "mode": "u", "is_plot_dir": true, "mnlcs": [765, 622, 758], "distances_m": [1190.0, 1090.0]}, {"line": "JUB", "dir": "S", "branch_id": 8041, "branch_name": "Stratford < > West Hampstead", "mode": "u", "is_plot_dir": true, "mnlcs": [758, 579, 723, 696, 511, 524, 590, 761, 747, 784, 635, 787, 788, 852, 789, 884, 757, 719], "distances_m": [610.0, 610.0, 920.0, 2060.0, 1660.0, 1370.0, 1330.0, 960.0, 440.0, 1250.0, 1930.0, 1060.0, 2410.0, 1710.0, 1710.0, 1580.0, 1540.0]}, {"line": "MET", "dir": "S", "branch_id": 8675, "branch_name": "Ruislip < > Uxbridge", "mode": "u", "is_plot_dir": false, "mnlcs": [740, 606, 615, 691], "distances_m": [2030.0, 1080.0, 1850.0]}, {"line": "MET", "dir": "S", "branch_id": 8670, "branch_name": "Rayners Lane < > Ruislip", "mode": "u", "is_plot_dir": false, "mnlcs": [691, 693, 564, 683], "distances_m": [720.0, 1140.0, 1720.0]}, {"line": "MET", "dir": "S", "branch_id": 8665, "branch_name": "Harrow-on-the-Hill < > Rayners Lane", "mode": "u", "is_plot_dir": false, "mnlcs": [683, 759, 598], "distances_m": [1380.0, 1260.0]}, {"line": "MET", "dir": "S", "branch_id": 8660, "branch_name": "Chalfont & Latimer < > Amersham", "mode": "u", "is_plot_dir": false, "mnlcs": [506, 539], "distances_m": [3270.0]}, {"line": "MET", "dir": "S", "branch_id": 8655, "branch_name": "Chalfont & Latimer < > Chesham", "mode": "u", "is_plot_dir": false, "mnlcs": [543, 539], "distances_m": [6190.0]}, {"line": "MET", "dir": "S", "branch_id": 8650, "branch_name": "Moor Park < > Chalfont & Latimer", "mode": "u", "is_plot_dir": false, "mnlcs": [539, 546, 687, 646], "distances_m": [3430.0, 3380.0, 3490.0]}, {"line": "MET", "dir": "S", "branch_id": 8645, "branch_name": "Moor Park < > Watford", "mode": "u", "is_plot_dir": false, "mnlcs": [748, 554, 646], "distances_m": [1900.0, 2940.0]}, {"line": "MET", "dir": "S", "branch_id": 8640, "branch_name": "Harrow-on-the-Hill < > Moor Park", "mode": "u", "is_plot_dir": false, "mnlcs": [646, 661, 662, 675, 656, 598], "distances_m": [2220.0, 1610.0, 2080.0, 1480.0, 2000.0]}, {"line": "MET", "dir": "S", "branch_id": 8635, "branch_name": "Baker Street < > Harrow-on-the-Hill", "mode": "u", "is_plot_dir": false, "mnlcs": [598, 660, 677, 752, 579, 511], "distances_m": [1290.0, 1640.0, 1460.0, 7240.0, 3380.0]}, {"line": "MET", "dir": "S", "branch_id": 8630, "branch_name": "Liverpool Street < > Baker Street", "mode": "u", "is_plot_dir": false, "mnlcs": [511, 588], "distances_m": [920.0]}, {"line": "MET", "dir": "N", "branch_id": 8630, "branch_name": "Liverpool Street < > Baker Street", "mode": "u", "is_plot_dir": true, "mnlcs": [588, 511], "distances_m": [920.0]}, {"line": "MET", "dir": "N", "branch_id": 8635, "branch_name": "Baker Street < > Harrow-on-the-Hill", "mode": "u", "is_plot_dir": true, "mnlcs": [511, 579, 752, 677, 660, 598], "distances_m": [3380.0, 7240.0, 1460.0, 1640.0, 1290.0]}, {"line": "MET", "dir": "N", "branch_id": 8640, "branch_name": "Harrow-on-the-Hill < > Moor Park", "mode": "u", "is_plot_dir": true, "mnlcs": [598, 656, 675, 662, 661, 646], "distances_m": [2000.0, 1480.0, 2080.0, 1610.0, 2220.0]}, {"line": "MET", "dir": "N", "branch_id": 8645, "branch_name": "Moor Park < > Watford", "mode": "u", "is_plot_dir": true, "mnlcs": [646, 554, 748], "distances_m": [2940.0, 1900.0]}, {"line": "MET", "dir": "N", "branch_id": 8650, "branch_name": "Moor Park < > Chalfont & Latimer", "mode": "u", "is_plot_dir": true, "mnlcs": [646, 687, 546, 539], "distances_m": [3490.0, 3380.0, 3430.0]}, {"line": "MET", "dir": "N", "branch_id": 8655, "branch_name": "Chalfont & Latimer < > Chesham", "mode": "u", "is_plot_dir": true, "mnlcs": [539, 543], "distances_m": [6190.0]}, {"line": "MET", "dir": "N", "branch_id": 8660, "branch_name": "Chalfont & Latimer < > Amersham", "mode": "u", "is_plot_dir": true, "mnlcs": [539, 506], "distances_m": [3270.0]}, {"line": "MET", "dir": "N", "branch_id": 8665, "branch_name": "Harrow-on-the-Hill < > Rayners Lane", "mode": "u", "is_plot_dir": true, "mnlcs": [598, 759, 683], "distances_m": [1260.0, 1380.0]}, {"line": "MET", "dir": "N", "branch_id": 8670, "branch_name": "Rayners Lane < > Ruislip", "mode": "u", "is_plot_dir": true, "mnlcs": [683, 564, 693, 691], "distances_m": [1720.0, 1140.0, 720.0]}, {"line": "MET", "dir": "N", "branch_id": 8675, "branch_name": "Ruislip < > Uxbridge", "mode": "u", "is_plot_dir": true, "mnlcs": [691, 615, 606, 740], "distances_m": [1850.0, 1080.0, 2030.0]}, {"line": "NLL", "dir": "E", "branch_id": 740, "branch_name": "Willesden Jn < > Richmond", "mode": "o", "is_plot_dir": false, "mnlcs": [686, 621, 591, 1452, 1404, 766], "distances_m": [2188.0, 1689.0, 1051.0, 1123.0, 3054.0]}, {"line": "NLL", "dir": "E", "branch_id": 730, "branch_name": "Shepherd's Bush < > Clapham Jn", "mode": "o", "is_plot_dir": false, "mnlcs": [5595, 9586, 755, 618, 9587], "distances_m": [2413.0, 1469.0, 1590.0, 804.0]}, {"line": "NLL", "dir": "E", "branch_id": 720, "branch_name": "Willesden Jn < > Shepherd's Bush", "mode": "o", "is_plot_dir": false, "mnlcs": [9587, 766], "distances_m": [3660.0]}, {"line": "NLL", "dir": "E", "branch_id": 710, "branch_name": "Stratford < > Willesden Jn", "mode": "o", "is_plot_dir": false, "mnlcs": [766, 1448, 1438, 1437, 1421, 1445, 1413, 1409, 1449, 1440, 1439, 603, 1441, 1429, 6977, 6979, 6978, 719], "distances_m": [1496.0, 805.0, 563.0, 659.0, 498.0, 1143.0, 692.0, 865.0, 820.0, 1848.0, 766.0, 891.0, 1347.0, 1345.0, 945.0, 1368.0, 1692.0]}, {"line": "NLL", "dir": "W", "branch_id": 710, "branch_name": "Stratford < > Willesden Jn", "mode": "o", "is_plot_dir": true, "mnlcs": [719, 6978, 6979, 6977, 1429, 1441, 603, 1439, 1440, 1449, 1409, 1413, 1445, 1421, 1437, 1438, 1448, 766], "distances_m": [1692.0, 1368.0, 1062.0, 1345.0, 1347.0, 891.0, 766.0, 1528.0, 852.0, 708.0, 692.0, 1142.0, 499.0, 659.0, 563.0, 804.0, 1496.0]}, {"line": "NLL", "dir": "W", "branch_id": 720, "branch_name": "Willesden Jn < > Shepherd's Bush", "mode": "o", "is_plot_dir": true, "mnlcs": [766, 9587], "distances_m": [3091.0]}, {"line": "NLL", "dir": "W", "branch_id": 730, "branch_name": "Shepherd's Bush < > Clapham Jn", "mode": "o", "is_plot_dir": true, "mnlcs": [9587, 618, 755, 9586, 5595], "distances_m": [804.0, 1590.0, 1469.0, 2263.0]}, {"line": "NLL", "dir": "W", "branch_id": 740, "branch_name": "Willesden Jn < > Richmond", "mode": "o", "is_plot_dir": true, "mnlcs": [766, 1404, 1452, 591, 621, 686], "distances_m": [3012.0, 1094.0, 1051.0, 1689.0, 1709.0]}, {"line": "NOR", "dir": "N", "branch_id": 8016, "branch_name": "Kennington < > Morden", "mode": "u", "is_plot_dir": false, "mnlcs": [647, 711, 552, 727, 726, 512, 549, 547, 548, 716, 668], "distances_m": [1460.0, 1140.0, 1210.0, 1110.0, 980.0, 1160.0, 1260.0, 630.0, 820.0, 1370.0]}, {"line": "NOR", "dir": "N", "branch_id": 8015, "branch_name": "Oval < > Kennington via Charing Cross", "mode": "u", "is_plot_dir": false, "mnlcs": [668, 616], "distances_m": [820.0]}, {"line": "NOR", "dir": "N", "branch_id": 8014, "branch_name": "Moorgate < > Kennington via Bank", "mode": "u", "is_plot_dir": false, "mnlcs": [668, 616, 570, 525, 635, 513, 645], "distances_m": [820.0, 900.0, 850.0, 680.0, 690.0, 820.0]}, {"line": "NOR", "dir": "N", "branch_id": 8013, "branch_name": "Camden Town < > Moorgate", "mode": "u", "is_plot_dir": false, "mnlcs": [645, 665, 507, 625, 574], "distances_m": [690.0, 1450.0, 1380.0, 740.0]}, {"line": "NOR", "dir": "N", "branch_id": 8012, "branch_name": "Battersea < > Kennington", "mode": "u", "is_plot_dir": false, "mnlcs": [832, 831, 616], "distances_m": [1040.0, 2100.0]}, {"line": "NOR", "dir": "N", "branch_id": 8011, "branch_name": "Camden Town < > Kennington via Charing Cross", "mode": "u", "is_plot_dir": false, "mnlcs": [616, 747, 542, 718, 631, 728, 586, 745, 574, 648], "distances_m": [1900.0, 710.0, 370.0, 470.0, 400.0, 630.0, 470.0, 760.0, 820.0]}, {"line": "NOR", "dir": "N", "branch_id": 8010, "branch_name": "Camden Town < > Euston LU (High Barnet)", "mode": "u", "is_plot_dir": false, "mnlcs": [574, 535], "distances_m": [1720.0]}, {"line": "NOR", "dir": "N", "branch_id": 8009, "branch_name": "Camden Town < > Mornington Crescent (High Barnet)", "mode": "u", "is_plot_dir": false, "mnlcs": [648, 535], "distances_m": [640.0]}, {"line": "NOR", "dir": "N", "branch_id": 8008, "branch_name": "Archway < > Camden Town", "mode": "u", "is_plot_dir": false, "mnlcs": [535, 619, 733, 508], "distances_m": [1150.0, 800.0, 890.0]}, {"line": "NOR", "dir": "N", "branch_id": 8007, "branch_name": "Finchley Central < > Archway", "mode": "u", "is_plot_dir": false, "mnlcs": [508, 604, 565, 578], "distances_m": [1710.0, 1640.0, 2430.0]}, {"line": "NOR", "dir": "N", "branch_id": 8006, "branch_name": "Mill Hill East < > Finchley Central", "mode": "u", "is_plot_dir": false, "mnlcs": [578, 643], "distances_m": [1520.0]}, {"line": "NOR", "dir": "N", "branch_id": 8005, "branch_name": "High Barnet < > Finchley Central", "mode": "u", "is_plot_dir": false, "mnlcs": [578, 756, 771, 730, 602], "distances_m": [1140.0, 980.0, 1510.0, 2480.0]}, {"line": "NOR", "dir": "N", "branch_id": 8004, "branch_name": "Camden Town < > Euston LU (Edgware)", "mode": "u", "is_plot_dir": false, "mnlcs": [574, 535], "distances_m": [1720.0]}, {"line": "NOR", "dir": "N", "branch_id": 8003, "branch_name": "Camden Town < > Mornington Crescent (Edgware)", "mode": "u", "is_plot_dir": false, "mnlcs": [648, 535], "distances_m": [640.0]}, {"line": "NOR", "dir": "N", "branch_id": 8002, "branch_name": "Golders Green < > Camden Town", "mode": "u", "is_plot_dir": false, "mnlcs": [535, 540, 519, 594, 584], "distances_m": [850.0, 1110.0, 1210.0, 2350.0]}, {"line": "NOR", "dir": "N", "branch_id": 8001, "branch_name": "Edgware < > Golders Green", "mode": "u", "is_plot_dir": false, "mnlcs": [584, 529, 601, 551, 532, 568], "distances_m": [1560.0, 1110.0, 2110.0, 1320.0, 1470.0]}, {"line": "NOR", "dir": "S", "branch_id": 8001, "branch_name": "Edgware < > Golders Green", "mode": "u", "is_plot_dir": true, "mnlcs": [568, 532, 551, 601, 529, 584], "distances_m": [1470.0, 1320.0, 2110.0, 1110.0, 1560.0]}, {"line": "NOR", "dir": "S", "branch_id": 8002, "branch_name": "Golders Green < > Camden Town", "mode": "u", "is_plot_dir": true, "mnlcs": [584, 594, 519, 540, 535], "distances_m": [2350.0, 1210.0, 1110.0, 850.0]}, {"line": "NOR", "dir": "S", "branch_id": 8003, "branch_name": "Camden Town < > Mornington Crescent (Edgware)", "mode": "u", "is_plot_dir": true, "mnlcs": [535, 648], "distances_m": [640.0]}, {"line": "NOR", "dir": "S", "branch_id": 8004, "branch_name": "Camden Town < > Euston LU (Edgware)", "mode": "u", "is_plot_dir": true, "mnlcs": [535, 574], "distances_m": [1720.0]}, {"line": "NOR", "dir": "S", "branch_id": 8005, "branch_name": "High Barnet < > Finchley Central", "mode": "u", "is_plot_dir": true, "mnlcs": [602, 730, 771, 756, 578], "distances_m": [2480.0, 1510.0, 980.0, 1140.0]}, {"line": "NOR", "dir": "S", "branch_id": 8006, "branch_name": "Mill Hill East < > Finchley Central", "mode": "u", "is_plot_dir": true, "mnlcs": [643, 578], "distances_m": [1520.0]}, {"line": "NOR", "dir": "S", "branch_id": 8007, "branch_name": "Finchley Central < > Archway", "mode": "u", "is_plot_dir": true, "mnlcs": [578, 565, 604, 508], "distances_m": [2430.0, 1640.0, 1710.0]}, {"line": "NOR", "dir": "S", "branch_id": 8008, "branch_name": "Archway < > Camden Town", "mode": "u", "is_plot_dir": true, "mnlcs": [508, 733, 619, 535], "distances_m": [890.0, 800.0, 1150.0]}, {"line": "NOR", "dir": "S", "branch_id": 8009, "branch_name": "Camden Town < > Mornington Crescent (High Barnet)", "mode": "u", "is_plot_dir": true, "mnlcs": [535, 648], "distances_m": [640.0]}, {"line": "NOR", "dir": "S", "branch_id": 8010, "branch_name": "Camden Town < > Euston LU (High Barnet)", "mode": "u", "is_plot_dir": true, "mnlcs": [535, 574], "distances_m": [1720.0]}, {"line": "NOR", "dir": "S", "branch_id": 8011, "branch_name": "Camden Town < > Kennington via Charing Cross", "mode": "u", "is_plot_dir": true, "mnlcs": [648, 574, 745, 586, 728, 631, 718, 542, 747, 616], "distances_m": [820.0, 760.0, 470.0, 630.0, 400.0, 470.0, 370.0, 710.0, 1900.0]}, {"line": "NOR", "dir": "S", "branch_id": 8012, "branch_name": "Battersea < > Kennington", "mode": "u", "is_plot_dir": true, "mnlcs": [616, 831, 832], "distances_m": [2100.0, 1040.0]}, {"line": "NOR", "dir": "S", "branch_id": 8013, "branch_name": "Camden Town < > Moorgate", "mode": "u", "is_plot_dir": true, "mnlcs": [574, 625, 507, 665, 645], "distances_m": [740.0, 1380.0, 1450.0, 690.0]}, {"line": "NOR", "dir": "S", "branch_id": 8014, "branch_name": "Moorgate < > Kennington via Bank", "mode": "u", "is_plot_dir": true, "mnlcs": [645, 513, 635, 525, 570, 616, 668], "distances_m": [820.0, 690.0, 680.0, 850.0, 900.0, 820.0]}, {"line": "NOR", "dir": "S", "branch_id": 8015, "branch_name": "Oval < > Kennington via Charing Cross", "mode": "u", "is_plot_dir": true, "mnlcs": [616, 668], "distances_m": [820.0]}, {"line": "NOR", "dir": "S", "branch_id": 8016, "branch_name": "Kennington < > Morden", "mode": "u", "is_plot_dir": true, "mnlcs": [668, 716, 548, 547, 549, 512, 726, 727, 552, 711, 647], "distances_m": [1370.0, 820.0, 630.0, 1260.0, 1160.0, 980.0, 1110.0, 1210.0, 1140.0, 1460.0]}, {"line": "PIC", "dir": "E", "branch_id": 8075, "branch_name": "Acton Town < > Rayners Lane", "mode": "u", "is_plot_dir": false, "mnlcs": [683, 707, 720, 721, 505, 671, 654, 561, 500], "distances_m": [1900.0, 1370.0, 1660.0, 1580.0, 1980.0, 1060.0, 950.0, 1030.0]}, {"line": "PIC", "dir": "E", "branch_id": 8074, "branch_name": "Heathrow Central < > Heathrow T4", "mode": "u", "is_plot_dir": false, "mnlcs": [781, 780], "distances_m": [4310.0]}, {"line": "PIC", "dir": "E", "branch_id": 8073, "branch_name": "Heathrow Central < > Heathrow T5", "mode": "u", "is_plot_dir": false, "mnlcs": [783, 780], "distances_m": [2480.0]}, {"line": "PIC", "dir": "E", "branch_id": 8072, "branch_name": "Hatton Cross < > Heathrow Central", "mode": "u", "is_plot_dir": false, "mnlcs": [780, 779], "distances_m": [2160.0]}, {"line": "PIC", "dir": "E", "branch_id": 8071, "branch_name": "Northfields < > Hatton Cross", "mode": "u", "is_plot_dir": false, "mnlcs": [779, 613, 611, 612, 667, 526, 655], "distances_m": [2910.0, 1460.0, 740.0, 970.0, 2430.0, 1000.0]}, {"line": "PIC", "dir": "E", "branch_id": 8070, "branch_name": "Acton Town < > Northfields", "mode": "u", "is_plot_dir": false, "mnlcs": [655, 704, 500], "distances_m": [390.0, 2200.0]}, {"line": "PIC", "dir": "E", "branch_id": 8069, "branch_name": "Arnos Grove < > Acton Town", "mode": "u", "is_plot_dir": false, "mnlcs": [500, 734, 593, 516, 562, 583, 708, 626, 614, 590, 674, 631, 553, 607, 694, 625, 534, 609, 510, 580, 638, 735, 770, 527, 509], "distances_m": [2160.0, 2250.0, 680.0, 1630.0, 790.0, 710.0, 1220.0, 510.0, 1060.0, 560.0, 500.0, 260.0, 600.0, 720.0, 920.0, 1960.0, 600.0, 740.0, 690.0, 1050.0, 2320.0, 980.0, 1530.0, 1260.0]}, {"line": "PIC", "dir": "E", "branch_id": 8068, "branch_name": "Cockfosters < > Arnos Grove", "mode": "u", "is_plot_dir": false, "mnlcs": [509, 706, 664, 550], "distances_m": [1950.0, 1870.0, 1270.0]}, {"line": "PIC", "dir": "W", "branch_id": 8068, "branch_name": "Cockfosters < > Arnos Grove", "mode": "u", "is_plot_dir": true, "mnlcs": [550, 664, 706, 509], "distances_m": [1270.0, 1870.0, 1950.0]}, {"line": "PIC", "dir": "W", "branch_id": 8069, "branch_name": "Arnos Grove < > Acton Town", "mode": "u", "is_plot_dir": true, "mnlcs": [509, 527, 770, 735, 638, 580, 510, 609, 534, 625, 694, 607, 553, 631, 674, 590, 614, 626, 708, 583, 562, 516, 593, 734, 500], "distances_m": [1260.0, 1530.0, 980.0, 2320.0, 1050.0, 690.0, 740.0, 600.0, 1960.0, 920.0, 720.0, 600.0, 260.0, 500.0, 560.0, 1060.0, 510.0, 1220.0, 710.0, 790.0, 1630.0, 680.0, 2250.0, 2160.0]}, {"line": "PIC", "dir": "W", "branch_id": 8070, "branch_name": "Acton Town < > Northfields", "mode": "u", "is_plot_dir": true, "mnlcs": [500, 704, 655], "distances_m": [2200.0, 390.0]}, {"line": "PIC", "dir": "W", "branch_id": 8071, "branch_name": "Northfields < > Hatton Cross", "mode": "u", "is_plot_dir": true, "mnlcs": [655, 526, 667, 612, 611, 613, 779], "distances_m": [1000.0, 2430.0, 970.0, 740.0, 1460.0, 2910.0]}, {"line": "PIC", "dir": "W", "branch_id": 8072, "branch_name": "Hatton Cross < > Heathrow Central", "mode": "u", "is_plot_dir": true, "mnlcs": [779, 780], "distances_m": [2160.0]}, {"line": "PIC", "dir": "W", "branch_id": 8073, "branch_name": "Heathrow Central < > Heathrow T5", "mode": "u", "is_plot_dir": true, "mnlcs": [780, 783], "distances_m": [2480.0]}, {"line": "PIC", "dir": "W", "branch_id": 8074, "branch_name": "Heathrow Central < > Heathrow T4", "mode": "u", "is_plot_dir": true, "mnlcs": [779, 781], "distances_m": [1830.0]}, {"line": "PIC", "dir": "W", "branch_id": 8075, "branch_name": "Acton Town < > Rayners Lane", "mode": "u", "is_plot_dir": true, "mnlcs": [500, 561, 654, 671, 505, 721, 720, 707, 683], "distances_m": [1030.0, 950.0, 1060.0, 1980.0, 1580.0, 1660.0, 1370.0, 1900.0]}, {"line": "TRM", "dir": "E", "branch_id": 8907, "branch_name": "Wimbledon < > Church St", "mode": "t", "is_plot_dir": false, "mnlcs": [8777, 9468, 9479, 9482, 9485, 9450, 9480, 9481, 9449, 9491, 9442, 9497, 9498, 9486, 9488], "distances_m": [530.0, 625.0, 806.0, 950.0, 389.0, 651.0, 1116.0, 1162.0, 906.0, 525.0, 725.0, 510.0, 723.0, 491.0]}, {"line": "TRM", "dir": "E", "branch_id": 8906, "branch_name": "Centrale < > Sandilands", "mode": "t", "is_plot_dir": false, "mnlcs": [9488, 8776, 9499, 9470, 9477, 9487], "distances_m": [424.0, 652.0, 441.0, 580.0, 502.0]}, {"line": "TRM", "dir": "E", "branch_id": 8905, "branch_name": "Sandilands < > Arena", "mode": "t", "is_plot_dir": false, "mnlcs": [9487, 9440, 9459, 8779, 9443], "distances_m": [807.0, 613.0, 424.0, 716.0]}, {"line": "TRM", "dir": "E", "branch_id": 8904, "branch_name": "Arena < > Beckenham Jn", "mode": "t", "is_plot_dir": false, "mnlcs": [9443, 9475, 9454, 9444, 9446, 9445], "distances_m": [1101.0, 749.0, 569.0, 557.0, 1248.0]}, {"line": "TRM", "dir": "E", "branch_id": 8903, "branch_name": "Arena < > Elmers End", "mode": "t", "is_plot_dir": false, "mnlcs": [9443, 9471], "distances_m": [987.0]}, {"line": "TRM", "dir": "E", "branch_id": 8902, "branch_name": "Sandilands < > New Addington", "mode": "t", "is_plot_dir": false, "mnlcs": [9487, 9478, 9464, 9474, 9441, 9472, 9476, 9484], "distances_m": [1582.0, 1588.0, 1382.0, 831.0, 875.0, 668.0, 383.0]}, {"line": "TRM", "dir": "W", "branch_id": 8901, "branch_name": "Church St < > Centrale", "mode": "t", "is_plot_dir": true, "mnlcs": [9460, 9488], "distances_m": [860.0]}, {"line": "TRM", "dir": "W", "branch_id": 8902, "branch_name": "Sandilands < > New Addington", "mode": "t", "is_plot_dir": true, "mnlcs": [9484, 9476, 9472, 9441, 9474, 9464, 9478, 9487], "distances_m": [323.0, 715.0, 852.0, 855.0, 1349.0, 1608.0, 613.0]}, {"line": "TRM", "dir": "W", "branch_id": 8903, "branch_name": "Arena < > Elmers End", "mode": "t", "is_plot_dir": true, "mnlcs": [9471, 9443], "distances_m": [1124.0]}, {"line": "TRM", "dir": "W", "branch_id": 8904, "branch_name": "Arena < > Beckenham Jn", "mode": "t", "is_plot_dir": true, "mnlcs": [9445, 9446, 9444, 9454, 9475, 9443], "distances_m": [1617.0, 1209.0, 552.0, 586.0, 737.0]}, {"line": "TRM", "dir": "W", "branch_id": 8905, "branch_name": "Sandilands < > Arena", "mode": "t", "is_plot_dir": true, "mnlcs": [9443, 8779, 9459, 9440, 9487], "distances_m": [949.0, 716.0, 431.0, 809.0]}, {"line": "TRM", "dir": "W", "branch_id": 8906, "branch_name": "Centrale < > Sandilands", "mode": "t", "is_plot_dir": true, "mnlcs": [9487, 9477, 9470, 9473, 9460], "distances_m": [547.0, 511.0, 432.0, 415.0]}, {"line": "TRM", "dir": "W", "branch_id": 8907, "branch_name": "Wimbledon < > Church St", "mode": "t", "is_plot_dir": true, "mnlcs": [9460, 9498, 9497, 9442, 9491, 9449, 9481, 9480, 9450, 9485, 9482, 9479, 9468, 8777], "distances_m": [662.0, 422.0, 725.0, 525.0, 1090.0, 1100.0, 1106.0, 661.0, 389.0, 950.0, 806.0, 625.0, 553.0]}, {"line": "URL", "dir": "E", "branch_id": 100, "branch_name": "Upminster < > Romford", "mode": "o", "is_plot_dir": false, "mnlcs": [6886, 7473, 736], "distances_m": [3218.0, 2254.0]}, {"line": "URL", "dir": "W", "branch_id": 100, "branch_name": "Upminster < > Romford", "mode": "o", "is_plot_dir": true, "mnlcs": [736, 7473, 6886], "distances_m": [2253.0, 3218.0]}, {"line": "VIC", "dir": "N", "branch_id": 8067, "branch_name": "Seven Sisters < > Brixton", "mode": "u", "is_plot_dir": false, "mnlcs": [778, 716, 777, 776, 741, 590, 669, 745, 574, 625, 603, 580, 698], "distances_m": [1460.0, 1770.0, 800.0, 1190.0, 1090.0, 1140.0, 900.0, 760.0, 740.0, 2450.0, 1930.0, 3150.0]}, {"line": "VIC", "dir": "N", "branch_id": 8066, "branch_name": "Walthamstow < > Seven Sisters", "mode": "u", "is_plot_dir": false, "mnlcs": [698, 729, 522, 742], "distances_m": [1050.0, 1370.0, 1450.0]}, {"line": "VIC", "dir": "S", "branch_id": 8066, "branch_name": "Walthamstow < > Seven Sisters", "mode": "u", "is_plot_dir": true, "mnlcs": [742, 522, 729, 698], "distances_m": [1450.0, 1370.0, 1050.0]}, {"line": "VIC", "dir": "S", "branch_id": 8067, "branch_name": "Seven Sisters < > Brixton", "mode": "u", "is_plot_dir": true, "mnlcs": [698, 580, 603, 625, 574, 745, 669, 590, 741, 776, 777, 716, 778], "distances_m": [3150.0, 1930.0, 2450.0, 740.0, 760.0, 900.0, 1140.0, 1090.0, 1190.0, 800.0, 1770.0, 1460.0]}, {"line": "WAC", "dir": "E", "branch_id": 8800, "branch_name": "Waterloo < > Bank", "mode": "u", "is_plot_dir": false, "mnlcs": [747, 513], "distances_m": [2220.0]}, {"line": "WAC", "dir": "W", "branch_id": 8800, "branch_name": "Waterloo < > Bank", "mode": "u", "is_plot_dir": true, "mnlcs": [513, 747], "distances_m": [2220.0]}, {"line": "WAG", "dir": "N", "branch_id": 360, "branch_name": "Hackney Downs < > Liverpool St (Fast)", "mode": "o", "is_plot_dir": false, "mnlcs": [6965, 6961, 6867], "distances_m": [1609.0, 2687.0]}, {"line": "WAG", "dir": "N", "branch_id": 350, "branch_name": "Hackney Downs < > Liverpool St", "mode": "o", "is_plot_dir": false, "mnlcs": [6965, 6961, 6962, 6966, 6867], "distances_m": [1609.0, 1030.0, 1046.0, 885.0]}, {"line": "WAG", "dir": "N", "branch_id": 320, "branch_name": "Chingford < > Hackney Downs", "mode": "o", "is_plot_dir": false, "mnlcs": [6867, 6926, 6973, 742, 6954, 6919, 6914], "distances_m": [1609.0, 2707.0, 853.0, 1142.0, 2333.0, 2924.0]}, {"line": "WAG", "dir": "N", "branch_id": 310, "branch_name": "Edmonton Green < > Hackney Downs", "mode": "o", "is_plot_dir": false, "mnlcs": [6867, 6967, 6934, 6968, 698, 6958, 6956, 6972, 6941], "distances_m": [1336.0, 644.0, 1352.0, 933.0, 1253.0, 1271.0, 1255.0, 1062.0]}, {"line": "WAG", "dir": "N", "branch_id": 300, "branch_name": "Enfield Town < > Edmonton Green", "mode": "o", "is_plot_dir": false, "mnlcs": [6941, 6913, 6959], "distances_m": [1894.0, 1255.0]}, {"line": "WAG", "dir": "N", "branch_id": 290, "branch_name": "Cheshunt < > Edmonton Green", "mode": "o", "is_plot_dir": false, "mnlcs": [6941, 6947, 6952, 6949, 6814], "distances_m": [2908.0, 2639.0, 2076.0, 1465.0]}, {"line": "WAG", "dir": "S", "branch_id": 290, "branch_name": "Cheshunt < > Edmonton Green", "mode": "o", "is_plot_dir": true, "mnlcs": [6814, 6949, 6952, 6947, 6941], "distances_m": [1465.0, 2076.0, 2639.0, 2909.0]}, {"line": "WAG", "dir": "S", "branch_id": 300, "branch_name": "Enfield Town < > Edmonton Green", "mode": "o", "is_plot_dir": true, "mnlcs": [6959, 6913, 6941], "distances_m": [1255.0, 1896.0]}, {"line": "WAG", "dir": "S", "branch_id": 310, "branch_name": "Edmonton Green < > Hackney Downs", "mode": "o", "is_plot_dir": true, "mnlcs": [6941, 6972, 6956, 6958, 698, 6968, 6934, 6967, 6867], "distances_m": [1062.0, 1255.0, 1271.0, 1223.0, 883.0, 1352.0, 644.0, 1336.0]}, {"line": "WAG", "dir": "S", "branch_id": 320, "branch_name": "Chingford < > Hackney Downs", "mode": "o", "is_plot_dir": true, "mnlcs": [6914, 6919, 6954, 742, 6973, 6926, 6867], "distances_m": [2924.0, 2333.0, 1142.0, 853.0, 2816.0, 1609.0]}, {"line": "WAG", "dir": "S", "branch_id": 350, "branch_name": "Hackney Downs < > Liverpool St", "mode": "o", "is_plot_dir": true, "mnlcs": [6867, 6966, 6962, 6961, 6965], "distances_m": [885.0, 1046.0, 1030.0, 1609.0]}, {"line": "WAG", "dir": "S", "branch_id": 360, "branch_name": "Hackney Downs < > Liverpool St (Fast)", "mode": "o", "is_plot_dir": true, "mnlcs": [6867, 6961, 6965], "distances_m": [2687.0, 1609.0]},